City_ID,City,Lat,Lng,Max Temp,Humidity,Cloudiness,Wind Speed,Country,Date
0,labrador city,52.9463,-66.9114,1.26,97,100,4.73,CA,1714275010
1,waitangi,-43.9535,-176.5597,12.96,74,40,7.33,NZ,1714275084
2,sao joao dos patos,-6.495,-43.7022,24.23,72,100,1.1,BR,1714275085
3,cuyo,10.8525,121.0086,29.98,73,100,2.88,PH,1714275085
4,miquelon,47.0975,-56.3814,2.29,79,76,6.61,PM,1714275085
5,saruhanli,38.7346,27.5681,12.0,83,1,1.81,TR,1714275085
6,afaahiti,-17.75,-149.2833,25.95,82,80,9.88,PF,1714275085
7,punta arenas,-53.15,-70.9167,2.45,75,68,10.98,CL,1714275086
8,ushuaia,-54.8,-68.3,1.27,95,99,4.53,AR,1714275086
9,uturoa,-16.7333,-151.4333,28.49,75,66,10.07,PF,1714275086
10,invercargill,-46.4,168.35,13.39,76,11,3.88,NZ,1714274915
11,fort bragg,35.139,-79.006,17.44,78,100,4.02,US,1714275086
12,troitsko-pechorsk,62.7084,56.1964,0.61,88,100,4.58,RU,1714275086
13,polyarnyy,69.1989,33.4478,-2.1,83,98,2.09,RU,1714275086
14,margaret river,-33.95,115.0667,19.61,52,76,3.88,AU,1714275087
15,grytviken,-54.2811,-36.5092,3.47,99,100,1.69,GS,1714275087
16,blackmans bay,-43.0167,147.3167,16.73,50,88,2.73,AU,1714275087
17,adamstown,-25.066,-130.1015,21.93,86,100,4.09,PN,1714275087
18,hancheng,32.5186,112.3522,23.84,62,93,4.32,CN,1714275087
19,poronaysk,49.2167,143.1167,11.67,36,21,8.73,RU,1714275088
20,bilibino,68.0546,166.4372,0.46,83,52,1.02,RU,1714275088
21,edinburgh of the seven seas,-37.0676,-12.3116,11.95,82,93,17.1,SH,1714275088
22,port-aux-francais,-49.35,70.2167,5.03,68,100,10.64,TF,1714275088
23,margate,51.3813,1.3862,10.05,92,100,9.52,GB,1714275088
24,juan griego,11.0817,-63.9655,25.33,86,59,3.52,VE,1714275088
25,mount isa,-20.7333,139.5,30.12,27,2,5.01,AU,1714275017
26,luang namtha,20.9497,101.4011,39.83,15,0,1.45,LA,1714275089
27,stanley,54.868,-1.6985,2.89,97,100,2.78,GB,1714275089
28,cadale,2.7603,46.3222,28.47,74,89,7.87,SO,1714275089
29,kodiak,57.79,-152.4072,5.23,86,98,3.15,US,1714275089
30,churapcha,62.0025,132.4325,0.58,30,10,5.94,RU,1714275089
31,longyearbyen,78.2186,15.6401,-2.57,94,100,2.88,SJ,1714275042
32,kununurra,-15.7667,128.7333,32.54,19,2,7.33,AU,1714275090
33,ilulissat,69.2167,-51.1,-1.2,98,100,1.07,GL,1714275091
34,guijuelo,40.5576,-5.6707,0.42,92,4,1.0,ES,1714275091
35,xining,36.6167,101.7667,15.03,41,91,6.18,CN,1714275091
36,albany,42.6001,-73.9662,7.2,88,100,1.62,US,1714275091
37,tazovsky,67.4667,78.7,-1.05,98,100,2.33,RU,1714275091
38,ulsteinvik,62.3432,5.8487,4.78,72,9,2.55,NO,1714275091
39,tsiombe,-25.3,45.4833,19.83,85,17,2.19,MG,1714275092
40,bredasdorp,-34.5322,20.0403,16.68,77,95,1.6,ZA,1714275092
41,castillos,-34.1667,-53.8333,8.98,75,7,2.2,UY,1714275092
42,udachny,66.4167,112.4,-6.98,65,89,2.69,RU,1714275092
43,mahibadhoo,3.7833,72.9667,29.85,74,100,5.58,MV,1714275092
44,terbanggi besar,-4.8667,105.2333,27.7,81,96,3.43,ID,1714275092
45,otley,53.9055,-1.6938,4.62,93,100,5.38,GB,1714275093
46,klyuchi,52.2667,79.1667,13.98,29,78,4.11,RU,1714275093
47,al kharijah,25.4514,30.5464,18.55,38,0,3.58,EG,1714275093
48,hithadhoo,-0.6,73.0833,29.67,75,100,6.48,MV,1714275093
49,thompson,55.7435,-97.8558,-2.78,54,6,1.95,CA,1714275093
50,ribeira grande,38.5167,-28.7,14.02,67,29,5.81,PT,1714275094
51,umri,26.5106,78.9367,35.85,14,6,2.64,IN,1714275094
52,vallenar,-28.5708,-70.7581,19.03,39,100,0.29,CL,1714275094
53,iqaluit,63.7506,-68.5145,-15.4,89,42,3.79,CA,1714275094
54,puerto natales,-51.7236,-72.4875,3.18,85,99,6.95,CL,1714275094
55,woolgoolga,-30.1106,153.2007,21.58,64,13,2.35,AU,1714275094
56,rikaze,29.25,88.8833,11.99,9,0,4.53,CN,1714275095
57,bethel,41.3712,-73.414,7.66,83,100,2.16,US,1714275095
58,port mathurin,-19.6833,63.4167,26.5,76,16,3.51,MU,1714275095
59,kibaya,-5.3,36.5667,15.04,93,100,1.93,TZ,1714275095
60,suva,-18.1416,178.4415,27.85,84,22,3.93,FJ,1714275095
61,buhe,30.2876,112.2298,29.32,46,10,3.47,CN,1714275095
62,shindand,33.3029,62.1474,15.07,31,41,12.47,AF,1714275096
63,remire-montjoly,4.9167,-52.2667,26.61,81,98,2.83,GF,1714275096
64,bay roberts,47.5999,-53.2648,0.14,86,100,7.35,CA,1714275096
65,isafjordur,66.0755,-23.124,0.97,86,92,2.32,IS,1714275096
66,turpan,42.9333,89.1667,18.51,9,53,1.5,CN,1714275096
67,verkhnevilyuysk,63.4453,120.3167,-2.22,83,100,3.4,RU,1714275096
68,prince rupert,54.3161,-130.3201,7.64,88,100,5.53,CA,1714275062
69,yellowknife,62.456,-114.3525,-3.78,61,83,1.8,CA,1714275097
70,likiep,9.8251,169.3107,27.93,81,24,8.55,MH,1714275097
71,whitehorse,60.7161,-135.0538,7.44,68,90,2.03,CA,1714274727
72,grand gaube,-20.0064,57.6608,25.79,80,79,5.15,MU,1714275097
73,cockburn town,21.4612,-71.1419,25.09,74,5,9.51,TC,1714275097
74,machina,13.1364,10.0492,28.64,16,89,2.6,NG,1714275097
75,agat village,13.3886,144.6585,29.39,69,100,6.83,GU,1714275098
76,alofi,-19.0595,-169.9187,26.79,71,0,8.49,NU,1714275098
77,tiksi,71.6872,128.8694,-11.85,72,69,1.12,RU,1714275098
78,avarua,-21.2078,-159.775,26.31,81,55,10.93,CK,1714275098
79,hultsfred,57.4882,15.8436,3.74,90,96,2.09,SE,1714275098
80,christchurch,-43.5333,172.6333,15.09,51,0,3.34,NZ,1714274928
81,nasir,15.5894,32.5634,30.63,22,2,6.78,SD,1714275099
82,shwebo,22.5667,95.7,39.71,18,8,1.08,MM,1714275099
83,kenai,60.5544,-151.2583,7.45,68,4,2.77,US,1714275099
84,aasiaat,68.7098,-52.8699,-1.74,91,96,1.56,GL,1714275099
85,cabo san lucas,22.8909,-109.9124,18.71,76,99,7.19,MX,1714274289
86,puerto ayora,-0.7393,-90.3518,24.0,86,21,2.54,EC,1714275099
87,caleta de carquin,-11.0925,-77.6267,19.8,89,49,2.15,PE,1714275100
88,ndele,8.4109,20.6473,22.73,79,98,2.07,CF,1714275100
89,pacasmayo,-7.4006,-79.5714,20.7,80,93,4.5,PE,1714275100
90,hasaki,35.7333,140.8333,20.38,68,0,4.13,JP,1714275100
91,tongouson,5.0214,120.1328,29.14,77,100,5.84,PH,1714275100
92,jinchang,38.4953,102.1739,11.37,42,87,9.3,CN,1714275100
93,muisne,0.6,-80.0333,25.82,84,73,3.04,EC,1714275101
94,hawaiian paradise park,19.5933,-154.9731,23.09,83,100,5.43,US,1714275101
95,mahajanga,-15.7167,46.3167,26.4,75,65,1.28,MG,1714275101
96,papatowai,-46.5619,169.4708,13.84,74,10,4.48,NZ,1714275101
97,ramnicu sarat,45.3833,27.05,11.54,68,29,3.31,RO,1714275101
98,hamilton,39.1834,-84.5333,19.44,73,78,4.65,US,1714275082
99,monastir,35.7833,10.8333,16.17,83,0,5.21,TN,1714275102
100,wailua homesteads,22.0669,-159.378,22.88,81,60,4.32,US,1714275102
101,glendive,47.1053,-104.7125,10.9,46,50,7.05,US,1714275102
102,cidade velha,14.9167,-23.6167,22.75,80,24,2.71,CV,1714275102
103,anadyr,64.75,177.4833,-3.51,86,95,2.05,RU,1714275102
104,serang,-6.1149,106.1502,30.2,72,91,2.76,ID,1714275102
105,skidaway island,31.9349,-81.0471,19.98,74,100,4.49,US,1714275103
106,vuktyl,63.8567,57.3094,0.66,85,100,6.1,RU,1714275103
107,callao,-12.0667,-77.15,20.04,87,71,1.63,PE,1714275103
108,nieuw nickerie,5.95,-56.9833,26.41,84,64,4.56,SR,1714275103
109,kulu,39.0951,33.0799,13.72,79,100,2.69,TR,1714275103
110,frontera,26.9333,-101.45,28.78,24,0,0.68,MX,1714275103
111,embarcacion,-23.209,-64.096,19.26,94,100,0.83,AR,1714275104
112,san patricio,28.017,-97.5169,24.54,82,62,8.85,US,1714275104
113,kruisfontein,-34.0033,24.7314,16.37,69,100,1.64,ZA,1714275104
114,hengshui,37.7322,115.7011,22.98,42,100,4.25,CN,1714275011
115,badger,64.8,-147.5333,7.36,65,95,2.58,US,1714275104
116,okhotsk,59.3833,143.3,-0.98,86,99,5.44,RU,1714275105
117,villa ojo de agua,-29.5,-63.6938,10.55,76,48,6.03,AR,1714275105
118,atafu village,-8.5421,-172.5159,29.81,75,88,5.47,TK,1714275105
119,port elizabeth,-33.918,25.5701,16.98,80,100,4.73,ZA,1714275105
120,zheleznodorozhnyy,55.7503,38.0042,8.42,77,30,1.78,RU,1714275105
121,smithers,54.7804,-127.1743,6.77,81,83,1.43,CA,1714275003
122,yilan,24.757,121.753,22.19,93,100,2.7,TW,1714275105
123,lompoc,34.6391,-120.4579,11.06,91,9,5.4,US,1714275041
124,enriquillo,17.9,-71.2333,24.15,88,16,4.82,DO,1714275106
125,port lincoln,-34.7333,135.8667,22.23,33,46,8.65,AU,1714275106
126,zheshart,62.0731,49.5733,2.11,82,100,4.36,RU,1714275106
127,dhidhdhoo,6.8833,73.1,29.79,72,100,2.56,MV,1714275047
128,galliano,29.4422,-90.2992,22.24,83,0,7.96,US,1714275106
129,chapaev,50.2,51.1667,18.93,32,40,4.2,KZ,1714275106
130,brookings,44.3114,-96.7984,7.24,87,100,5.74,US,1714275107
131,parfino,57.9731,31.6481,7.36,77,38,2.15,RU,1714275107
132,kovdor,67.5662,30.4758,-1.83,96,93,0.9,RU,1714275107
133,ola,59.5833,151.2833,0.15,99,100,0.79,RU,1714275107
134,bokhan,53.153,103.7714,8.6,60,99,3.63,RU,1714275107
135,greenland,43.0362,-70.8328,7.71,67,100,2.03,US,1714275108
136,berrahal,36.8353,7.4533,13.73,65,2,1.53,DZ,1714275108
137,balakhta,55.38,91.6,10.73,46,99,7.41,RU,1714275108
138,tartagal,-22.5164,-63.8013,18.64,98,100,2.35,AR,1714275108
139,chibougamau,49.9168,-74.3659,7.54,92,100,7.03,CA,1714275108
140,makarov,48.6333,142.8,9.64,42,3,6.94,RU,1714275108
141,gadzhiyevo,69.2551,33.3362,-2.26,85,98,1.91,RU,1714275109
142,san antonio de pale,-1.4014,5.6325,28.39,84,63,4.51,GQ,1714275109
143,touros,-5.1989,-35.4608,24.8,92,80,3.02,BR,1714275109
144,west island,-12.1568,96.8225,27.17,83,85,8.28,CC,1714275109
145,dunedin,-45.8742,170.5036,13.08,71,7,3.14,NZ,1714275109
146,roma,43.2128,-75.4557,9.63,91,100,2.97,US,1714275109
147,suicheng,33.8963,117.9331,22.4,70,100,5.17,CN,1714275110
148,chifeng,42.2683,118.9636,1.38,100,100,1.97,CN,1714275110
149,tolanaro,-25.0319,46.9987,21.27,83,29,1.78,MG,1714275110
150,menomonie,44.8755,-91.9193,9.44,86,100,3.57,US,1714275110
151,ashburton,-37.8626,145.0794,20.95,37,83,5.51,AU,1714275110
152,yaren,-0.5472,166.916,29.03,76,26,5.36,NR,1714275110
153,siuri,23.9167,87.5333,40.1,15,11,5.0,IN,1714275111
154,vila velha,-20.3297,-40.2925,23.22,75,0,2.98,BR,1714275111
155,jamestown,42.097,-79.2353,12.18,98,98,4.65,US,1714275111
156,barbezieux-saint-hilaire,45.4726,-0.1522,6.63,94,37,3.4,FR,1714275111
157,mabaruma,8.2,-59.7833,22.56,100,92,0.62,GY,1714275112
158,darab,28.7519,54.5444,19.93,34,78,5.18,IR,1714275112
159,kone,-21.0595,164.8658,26.6,63,84,1.89,NC,1714275112
160,swakopmund,-22.6833,14.5333,16.9,74,78,2.49,NA,1714275112
161,at taj,24.2049,23.2857,19.89,21,2,4.86,LY,1714275112
162,linxia chengguanzhen,35.6003,103.2064,16.33,38,51,3.25,CN,1714275112
163,mitu,1.1983,-70.1733,23.4,98,96,0.14,CO,1714275113
164,chengde,40.9725,117.9361,10.5,57,100,4.06,CN,1714275113
165,zaragoza,41.6561,-0.8773,8.34,68,23,0.91,ES,1714275113
166,ketchikan,55.3422,-131.6461,7.69,90,100,7.78,US,1714275113
167,senanga,-16.1167,23.2667,13.99,54,0,2.62,ZM,1714275113
168,priargunsk,50.3691,119.1012,10.58,20,1,4.11,RU,1714275114
169,cidreira,-30.1811,-50.2056,18.25,85,100,3.85,BR,1714275114
170,tura,25.5198,90.2201,33.81,41,5,3.55,IN,1714275114
171,paka,4.6374,103.4368,32.29,62,89,2.81,MY,1714275114
172,buka,40.8108,69.1986,10.38,42,81,3.68,UZ,1714275114
173,fort stockton,30.894,-102.8793,22.57,17,31,8.65,US,1714274817
174,boguchany,58.3814,97.4531,6.67,68,100,4.75,RU,1714275115
175,gamba,-2.65,10.0,25.9,93,76,2.25,GA,1714275115
176,queenstown,-31.8976,26.8753,13.23,74,100,0.6,ZA,1714275115
177,howard springs,-12.497,131.047,33.23,32,46,3.91,AU,1714275115
178,tawau,4.2498,117.8871,29.72,68,100,1.79,MY,1714275115
179,dehui,44.5333,125.7,11.12,29,100,3.32,CN,1714275115
180,bel ombre,-4.6167,55.4167,28.81,75,100,1.85,SC,1714275116
181,olonkinbyen,70.9221,-8.7187,0.1,79,100,3.32,SJ,1714275116
182,fortaleza,-3.7227,-38.5247,24.41,87,100,2.53,BR,1714275116
183,nagqu,31.5,92.0,5.93,21,76,8.0,CN,1714275116
184,borovskoy,53.8,64.15,16.38,70,100,7.18,KZ,1714275116
185,carnarvon,-24.8667,113.6333,27.83,56,1,3.89,AU,1714275116
186,aneho,6.2333,1.6,28.3,84,45,4.32,TG,1714275117
187,la sarre,48.8002,-79.1996,11.2,97,100,6.41,CA,1714275117
188,malvan,16.0667,73.4667,30.57,64,3,2.64,IN,1714275117
189,peace river,56.2501,-117.286,9.23,65,89,4.72,CA,1714275117
190,morro do chapeu,-11.55,-41.1561,18.05,95,100,3.81,BR,1714275117
191,lerwick,60.1545,-1.1494,6.1,76,63,4.27,GB,1714275117
192,obo,5.3998,26.4869,21.36,93,93,2.36,CF,1714275118
193,chinde,26.8418,88.0763,27.13,29,0,3.46,NP,1714275118
194,givors,45.5833,4.7667,12.11,87,97,8.4,FR,1714275118
195,an ros,53.5223,-6.0931,4.14,83,4,3.59,IE,1714275118
196,swift current,50.2834,-107.8014,11.37,45,100,5.64,CA,1714274981
197,deneysville,-26.8908,28.0971,9.34,78,93,2.35,ZA,1714275118
198,haiku-pauwela,20.9219,-156.3051,22.84,84,94,7.93,US,1714275119
199,acapulco de juarez,16.8634,-99.8901,23.29,78,4,0.88,MX,1714275027
200,mejit,10.2753,170.8646,27.75,80,47,8.6,MH,1714275119
201,constantia,44.1833,28.65,12.5,75,100,6.62,RO,1714275119
202,tosontsengel,48.7567,98.2839,0.68,38,0,1.11,MN,1714275119
203,ilomantsi,62.6716,30.9328,3.66,85,96,1.92,FI,1714275119
204,tchintabaraden,15.8969,5.7985,28.32,14,1,1.86,NE,1714275120
205,hakui,36.8833,136.7833,22.0,51,3,3.47,JP,1714275120
206,oeiras,-7.0253,-42.1311,23.14,75,95,1.42,BR,1714275120
207,utrik,11.2278,169.8474,27.53,81,65,8.6,MH,1714275120
208,zhangye,38.9342,100.4517,10.92,28,100,7.43,CN,1714275120
209,mugia,43.1041,-9.2179,11.16,62,29,4.78,ES,1714275121
210,kirensk,57.7853,108.1119,2.94,93,100,4.47,RU,1714275121
211,ifo,6.8144,3.1958,26.43,90,70,1.85,NG,1714275121
212,san juan de uraba,8.7592,-76.5297,25.98,91,100,2.13,CO,1714275121
213,shimoda,34.6667,138.95,22.11,73,5,3.66,JP,1714275121
214,bardai,11.65,7.2333,27.06,49,61,2.45,NG,1714275121
215,praia da vitoria,38.7333,-27.0667,13.31,70,97,4.32,PT,1714275122
216,qaqortoq,60.7167,-46.0333,-2.56,96,67,1.37,GL,1714275122
217,tongchuanshi,35.0806,109.0897,24.38,47,0,5.13,CN,1714275122
218,posse,-14.0931,-46.3694,24.82,61,89,1.82,BR,1714275122
219,lindisfarne,-42.8333,147.35,17.69,41,93,2.37,AU,1714275122
220,idri,27.5,13.2667,25.2,17,42,2.77,LY,1714275123
221,ares,-6.1944,-35.1603,24.48,92,100,2.15,BR,1714275123
222,mirnyy,62.5353,113.9611,-2.83,72,100,2.86,RU,1714275123
223,takoradi,4.8845,-1.7554,27.56,86,88,2.58,GH,1714275123
224,kampene,-3.6,26.6667,20.26,99,72,1.01,CD,1714275123
225,talnakh,69.4865,88.3972,-4.72,91,100,4.33,RU,1714275123
226,al ghayzah,16.2079,52.176,28.17,68,80,2.51,YE,1714275124
227,nove straseci,50.1527,13.9004,5.61,97,100,1.85,CZ,1714275124
228,kifri,34.6959,44.9661,28.76,17,30,7.23,IQ,1714275124
229,vrutky,49.1133,18.9171,7.27,90,7,2.7,SK,1714275124
230,lebu,-37.6167,-73.65,9.62,79,22,2.03,CL,1714275124
231,neiafu,-18.65,-173.9833,27.76,79,3,7.28,TO,1714275125
232,tofol,5.3248,163.0078,28.43,78,84,6.42,FM,1714275125
233,khandyga,62.6667,135.6,-2.2,77,100,1.99,RU,1714275125
234,sapele,5.8941,5.6767,26.5,93,100,1.24,NG,1714275125
235,mount gambier,-37.8333,140.7667,20.86,27,8,4.91,AU,1714275026
236,ulverstone,-41.15,146.1667,15.57,69,89,4.07,AU,1714275125
237,parras de la fuente,25.4167,-102.1833,24.81,7,12,3.98,MX,1714275126
238,iquitos,-3.7481,-73.2472,23.56,98,90,0.26,PE,1714275126
239,ciudad altamirano,18.3167,-100.65,29.95,38,2,1.17,MX,1714275126
240,herriman,40.5141,-112.033,6.12,85,94,1.21,US,1714274995
241,petropavlovsk-kamchatsky,53.0452,158.6483,1.65,100,100,1.8,RU,1714275126
242,eagle pass,28.7091,-100.4995,28.46,55,0,9.26,US,1714275093
243,la villa del rosario,10.3258,-72.3134,25.48,80,94,3.52,VE,1714275126
244,borba,-4.3878,-59.5939,23.83,96,65,0.98,BR,1714275127
245,ada,43.4166,-116.1262,12.52,37,100,4.62,US,1714274986
246,kuqa,41.7278,82.9364,15.96,17,99,2.87,CN,1714275127
247,inongo,-1.95,18.2667,22.57,91,83,1.77,CD,1714275127
248,baharly,38.4362,57.4316,18.68,16,0,3.95,TM,1714275127
249,ebon,4.582,168.6964,28.72,74,35,4.59,MH,1714275127
250,lihue,21.9789,-159.3672,23.33,80,54,4.13,US,1714275128
251,mongar,27.2747,91.2396,26.37,37,10,2.98,BT,1714275128
252,berlin,52.5244,13.4105,10.79,73,51,4.01,DE,1714274881
253,sar-e pul,35.8333,66.1667,9.99,61,99,0.84,AF,1714275128
254,bela,25.9333,81.9833,38.26,9,9,5.17,IN,1714275128
255,freeport,40.6576,-73.5832,10.01,78,100,5.54,US,1714275129
256,nemuro,43.3236,145.575,5.63,95,88,1.38,JP,1714275129
257,rabigh,22.7986,39.0349,29.76,52,40,0.68,SA,1714275129
258,mil'kovo,55.6078,37.7956,8.73,76,45,2.04,RU,1714275129
259,college,64.8569,-147.8028,7.13,65,86,2.48,US,1714275129
260,bokoro,12.3807,17.0568,28.17,13,100,5.16,TD,1714275129
261,jalai nur,49.45,117.7,9.87,23,3,5.42,CN,1714275130
262,mountain home,43.133,-115.6912,12.6,39,100,5.03,US,1714274919
263,pitimbu,-7.4706,-34.8086,26.38,83,80,3.75,BR,1714275130
264,ust-nera,64.5667,143.2,-0.2,92,100,2.46,RU,1714275130
265,arawa,-6.2132,155.5367,29.37,83,35,1.2,PG,1714275130
266,buala,-8.145,159.5921,29.79,76,94,3.74,SB,1714275130
267,mossel bay,-34.1831,22.146,18.99,73,100,3.19,ZA,1714275130
268,guerrero negro,27.9769,-114.0611,15.36,74,0,9.24,MX,1714275131
269,ascension,30.2169,-90.9001,20.79,82,11,5.23,US,1714275131
270,fada n'gourma,12.0622,0.3578,30.2,51,97,3.73,BF,1714275131
271,revda,56.801,59.9303,17.6,70,7,7.26,RU,1714275131
272,arraial do cabo,-22.9661,-42.0278,23.48,86,0,8.0,BR,1714275131
273,nova sintra,14.8667,-24.7167,23.58,79,100,4.09,CV,1714275131
274,balimila,18.25,82.1333,37.86,28,2,2.43,IN,1714275132
275,betio village,1.358,172.9211,29.03,77,79,6.24,KI,1714275132
276,ancud,-41.8697,-73.8203,10.63,88,100,5.25,CL,1714275132
277,palikir - national government center,6.9248,158.1611,27.88,81,90,8.72,FM,1714275132
278,east london,-33.0153,27.9116,17.77,75,100,8.75,ZA,1714274920
279,yuzhno-kurilsk,44.0306,145.8556,8.83,69,100,9.18,RU,1714275133
280,bikenibeu village,1.3673,173.1241,28.99,77,77,6.33,KI,1714275133
281,altay,47.8667,88.1167,8.85,23,0,1.3,CN,1714275133
282,gizo,-8.103,156.8419,29.57,75,51,4.76,SB,1714275133
283,taltal,-25.4,-70.4833,17.82,79,11,0.32,CL,1714275133
284,kirgiz-miyaki,53.6324,54.7979,16.73,59,100,7.74,RU,1714275133
285,kidal,18.4411,1.4078,29.21,22,0,5.21,ML,1714275134
286,ghanzi,-21.5667,21.7833,15.92,72,4,5.63,BW,1714275134
287,kodinsk,58.6881,99.1844,3.44,90,100,3.29,RU,1714275134
288,semenivka,52.1783,32.5818,8.96,68,100,1.78,UA,1714275134
289,tamanrasset,22.785,5.5228,22.86,19,2,2.96,DZ,1714275134
290,aripuana,-9.1667,-60.6333,23.45,97,68,0.06,BR,1714275135
291,sisimiut,66.9395,-53.6735,-1.41,89,86,3.01,GL,1714275135
292,hechuan,29.9947,106.2572,28.31,50,28,2.38,CN,1714275135
293,tchollire,8.4022,14.1698,26.62,34,56,0.98,CM,1714275135
294,port alfred,-33.5906,26.891,17.62,79,100,8.8,ZA,1714275135
295,severobaykal'sk,55.65,109.3167,1.29,84,95,2.65,RU,1714275136
296,cestos city,5.46,-9.5828,27.61,86,100,3.18,LR,1714275136
297,kavaratti,10.5669,72.642,30.01,69,100,4.08,IN,1714275136
298,kudahuvadhoo,2.6708,72.8944,29.05,79,100,6.51,MV,1714275136
299,howrah,22.5892,88.3103,40.47,19,1,3.81,IN,1714275136
300,eksel,51.1538,5.3923,13.06,68,100,6.53,BE,1714275136
301,magadan,59.5667,150.8,-0.33,99,100,2.23,RU,1714275137
302,sake,-1.5736,29.045,17.23,96,86,0.47,CD,1714275137
303,xingcheng,40.6167,120.7167,14.86,34,76,8.43,CN,1714275137
304,solleftea,63.1667,17.2667,0.95,95,100,0.32,SE,1714275137
305,vadso,70.0744,29.7487,0.09,76,100,4.1,NO,1714275137
306,lazaro cardenas,17.9583,-102.2,24.23,82,7,0.52,MX,1714275137
307,tabas,33.5959,56.9244,20.62,28,0,1.77,IR,1714275138
308,san andres,12.5847,-81.7006,28.29,80,78,7.39,CO,1714274881
309,champerico,14.3,-91.9167,29.74,67,51,4.28,GT,1714275138
310,sao joao da barra,-21.6403,-41.0511,23.48,81,0,6.05,BR,1714275138
311,murashi,59.3999,48.9615,6.97,89,100,5.08,RU,1714275138
312,new norfolk,-42.7826,147.0587,18.21,41,81,1.44,AU,1714275138
313,newman,37.3138,-121.0208,13.77,62,71,2.6,US,1714275138
314,luderitz,-26.6481,15.1594,17.76,59,66,3.38,NA,1714275139
315,san luis de la loma,17.2706,-100.8939,24.75,81,29,1.1,MX,1714275139
316,goondiwindi,-28.55,150.3167,24.83,38,76,2.02,AU,1714275139
317,sitka,57.0531,-135.33,8.74,82,100,2.9,US,1714275139
318,nabire,-3.3667,135.4833,31.12,66,89,3.13,ID,1714275139
319,strelka,58.0728,93.0344,7.08,80,100,4.85,RU,1714275140
320,san martin de los andes,-40.1604,-71.3486,1.35,100,100,2.98,AR,1714275140
321,vernon,50.2581,-119.2691,7.32,93,100,1.13,CA,1714275004
322,nouna,12.7333,-3.8667,31.53,44,19,5.21,BF,1714275140
323,sinabang,2.4803,96.3801,27.18,86,100,2.14,ID,1714275140
324,madison,34.7334,-86.5667,19.06,78,4,4.43,US,1714275140
325,hafar al-batin,28.4328,45.9708,27.62,27,98,4.1,SA,1714275141
326,totness,5.8833,-56.3167,25.76,88,79,3.59,SR,1714275141
327,hampton bays,40.869,-72.5176,9.09,74,100,5.33,US,1714275141
328,gaiman,-43.2897,-65.4929,12.82,39,80,15.88,AR,1714275141
329,pimentel,-6.8367,-79.9342,19.84,85,91,4.52,PE,1714275142
330,extrema,-22.8547,-46.3183,17.66,86,1,2.62,BR,1714275142
331,kingston,17.997,-76.7936,24.15,85,59,2.14,JM,1714275142
332,toktogul,41.8708,72.9402,12.75,66,83,2.48,KG,1714275142
333,greater sudbury,46.49,-80.99,11.51,99,100,3.29,CA,1714275142
334,nguigmi,14.2495,13.1092,27.17,21,51,4.81,NE,1714275143
335,kudat,6.8837,116.8477,32.87,58,100,6.81,MY,1714275143
336,vizinga,61.0749,50.1031,3.98,89,100,4.46,RU,1714275143
337,flying fish cove,-10.4217,105.6791,28.56,79,87,6.08,CX,1714275143
338,kaoma,-14.7833,24.8,12.46,75,0,2.66,ZM,1714275143
339,uruacu,-14.5247,-49.1408,25.33,67,88,1.3,BR,1714275143
340,colonia,50.9333,6.95,14.31,64,100,6.3,DE,1714275144
341,vorgashor,67.5833,63.95,-10.42,92,96,6.4,RU,1714275144
342,caetite,-14.0694,-42.475,17.61,96,8,3.97,BR,1714275144
343,island harbour,50.724,-1.2758,7.2,95,100,7.99,GB,1714275144
344,naha,26.2125,127.6811,27.32,77,44,4.24,JP,1714275144
345,takaungu,-3.6837,39.8566,26.4,81,97,7.25,KE,1714275144
346,hotan,37.0997,79.9269,17.67,26,47,3.04,CN,1714275145
347,enewetak,11.3474,162.3373,27.66,76,100,7.55,MH,1714275145
348,tete,-16.1564,33.5867,17.95,93,3,0.54,MZ,1714275145
349,san pedro pochutla,15.7333,-96.4667,26.45,78,6,2.29,MX,1714275145
350,broome,42.2506,-75.833,9.48,93,100,4.29,US,1714275145
351,kenora,49.8167,-94.4337,-0.37,91,53,1.98,CA,1714275146
352,nantucket,41.2835,-70.0995,9.18,63,100,7.75,US,1714275146
353,sangolqui,-0.3341,-78.4522,14.91,92,99,0.41,EC,1714275146
354,novyy urgal,51.0736,132.5642,6.66,24,100,6.98,RU,1714275146
355,hermanus,-34.4187,19.2345,17.65,69,0,1.29,ZA,1714275146
356,tommot,58.9564,126.2925,0.95,97,100,3.53,RU,1714275146
357,scottburgh,-30.2867,30.7532,15.35,84,2,3.18,ZA,1714275147
358,iskateley,67.6803,53.1512,-8.82,93,60,4.46,RU,1714275147
359,garoua boulai,5.8833,14.55,20.23,80,100,1.46,CM,1714275147
360,togur,58.3631,82.8265,9.75,75,100,6.08,RU,1714275147
361,pamandzi,-12.7967,45.2794,28.6,71,98,7.51,YT,1714275147
362,bamboo flat,11.7,92.7167,32.51,61,13,1.22,IN,1714275147
363,dryden,49.7833,-92.7503,0.73,82,100,3.46,CA,1714275148
364,sarlat-la-caneda,44.889,1.2166,8.03,96,100,1.84,FR,1714275148
365,lugovoy,42.9472,72.7644,7.52,66,97,2.04,KZ,1714275148
366,port isabel,26.0734,-97.2086,24.44,89,28,9.79,US,1714275148
367,sao joao batista,-27.2761,-48.8494,21.36,88,1,1.45,BR,1714275149
368,raseiniai,55.3736,23.1217,7.31,87,3,2.04,LT,1714275149
369,markapur,15.7333,79.2833,35.12,28,45,3.31,IN,1714275149
370,orange beach,30.2944,-87.5736,22.67,75,100,7.69,US,1714275149
371,tiruchchendur,8.4833,78.1167,31.65,61,93,2.5,IN,1714275150
372,okha,53.5739,142.9478,2.32,49,7,6.67,RU,1714275150
373,nuku'alofa,-21.1333,-175.2,27.24,81,45,5.29,TO,1714275150
374,codo,-4.4553,-43.8856,23.02,99,90,1.31,BR,1714275150
375,yatou,37.15,122.3833,22.07,44,100,1.73,CN,1714275150
376,kerikeri,-35.2268,173.9474,17.27,49,21,3.25,NZ,1714275151
377,kourou,5.1552,-52.6478,25.02,88,96,1.57,GF,1714275151
378,daru,-9.0763,143.2092,27.8,86,99,8.05,PG,1714275151
379,syktyvkar,61.6764,50.8099,2.37,81,100,4.68,RU,1714275151
380,keflavik,64.0049,-22.5624,5.6,67,11,5.09,IS,1714275151
381,uxbridge,42.0773,-71.6295,7.02,70,100,3.38,US,1714275151
382,waddan,29.1614,16.139,24.67,18,75,5.17,LY,1714275152
383,codrington,-38.2667,141.9667,20.36,34,0,6.32,AU,1714275152
384,antsohihy,-14.8796,47.9875,24.41,84,100,1.17,MG,1714275152
385,kumylzhenskaya,49.8809,42.5898,17.92,56,54,3.31,RU,1714275152
386,rebola,3.7167,8.8333,25.76,83,59,0.61,GQ,1714275152
387,geraldton,-28.7667,114.6,24.97,40,92,5.88,AU,1714275152
388,faya-largeau,17.9257,19.1043,27.28,10,0,7.67,TD,1714275153
389,saudarkrokur,65.7461,-19.6394,2.35,82,77,1.64,IS,1714275153
390,midvagur,62.0511,-7.1939,4.5,81,75,8.95,FO,1714275153
391,tobruk,32.0836,23.9764,16.94,67,49,2.97,LY,1714275153
392,dubai,25.2582,55.3047,27.56,52,0,4.51,AE,1714274821
393,berezovyy,51.6667,135.7,7.11,27,100,4.57,RU,1714275154
394,vila franca do campo,37.7167,-25.4333,14.03,80,62,3.15,PT,1714275154
395,lodwar,3.1191,35.5973,26.52,75,50,0.65,KE,1714275154
396,jand,33.4299,72.0193,20.89,62,1,4.2,PK,1714275154
397,katsuura,35.1333,140.3,21.09,74,1,3.35,JP,1714275154
398,balvi,57.1313,27.2658,7.68,91,100,1.95,LV,1714275154
399,vyazemskiy,47.5378,134.7525,9.47,39,100,5.53,RU,1714275155
400,puerto madero,14.7208,-92.4215,29.25,69,65,3.26,MX,1714275155
401,macas,-2.3167,-78.1167,20.06,95,86,1.42,EC,1714275155
402,portland,45.5234,-122.6762,9.7,89,100,3.74,US,1714274391
403,sabang,5.8933,95.3214,29.63,72,79,1.52,ID,1714275155
404,sarupathar,26.1984,93.8094,35.59,34,51,1.78,IN,1714275155
405,kas,36.2018,29.6377,19.34,37,0,3.03,TR,1714275155
406,n'zeto,-7.2312,12.8666,26.2,93,98,3.57,AO,1714275156
407,haenam,34.5711,126.5989,22.66,46,100,3.68,KR,1714275156
408,filadelfia,39.9523,-75.1638,10.95,68,100,3.21,US,1714274984
409,aracati,-4.5617,-37.7697,24.83,92,75,1.6,BR,1714275156
410,redencao,-4.2258,-38.7306,22.84,99,100,0.82,BR,1714275156
411,puerto baquerizo moreno,-0.9,-89.6,24.48,87,6,3.21,EC,1714275157
412,santiago de cao,-7.9589,-79.2392,19.75,86,75,4.53,PE,1714275157
413,ustka,54.5805,16.8619,8.8,79,26,4.9,PL,1714275157
414,illizi,26.4833,8.4667,25.52,16,1,2.83,DZ,1714275157
415,al hazm,16.1641,44.7769,26.38,36,1,0.49,YE,1714275158
416,shingu,33.7333,135.9833,22.48,69,40,2.79,JP,1714275158
417,greenville,35.6127,-77.3663,14.82,83,100,3.37,US,1714275158
418,viedma,-40.8135,-62.9967,10.58,39,0,7.01,AR,1714275158
419,kongolo,-5.3833,27.0,19.74,96,84,1.36,CD,1714275158
420,egilsstadir,65.2653,-14.3948,2.28,98,100,2.52,IS,1714275158
421,chilakalurupet,16.0833,80.1667,35.93,36,79,4.32,IN,1714275159
422,djambala,-2.5447,14.7533,21.13,86,97,1.13,CG,1714275159
423,merizo village,13.2658,144.6691,28.16,73,100,6.91,GU,1714275159
424,sungai penuh,-2.0833,101.3833,24.7,82,51,1.78,ID,1714275159
425,rivne,50.6231,26.2274,8.87,82,7,3.26,UA,1714275159
426,progreso,21.2833,-89.6667,27.67,62,100,5.81,MX,1714275159
427,forster,-32.1667,152.5167,21.69,63,1,4.76,AU,1714275031
428,fort st. john,56.2499,-120.8529,7.55,60,95,1.71,CA,1714275160
429,male,4.1748,73.5089,29.45,77,100,4.67,MV,1714275160
430,georgetown,5.4112,100.3354,30.77,69,73,1.45,MY,1714275160
431,hadibu,12.65,54.0333,28.66,73,86,1.42,YE,1714275160
432,lata,40.1629,-8.3327,4.85,96,18,0.04,PT,1714275160
433,mbanza kongo,-6.267,14.2401,20.34,94,78,1.31,AO,1714275160
434,antonio enes,-16.2325,39.9086,24.66,71,19,5.24,MZ,1714275161
435,matoury,4.8483,-52.3317,24.56,90,100,1.29,GF,1714275161
436,askoy,60.4092,5.226,4.76,69,19,2.66,NO,1714275161
437,tamandare,-8.7597,-35.1047,26.12,81,29,2.1,BR,1714275161
438,alice springs,-23.7,133.8833,23.47,16,0,4.77,AU,1714275161
439,lithgow,-33.4833,150.15,19.13,34,62,2.21,AU,1714275161
440,vilyuchinsk,52.9306,158.4028,2.2,100,100,1.32,RU,1714275162
441,sao vicente,-23.9631,-46.3919,25.51,70,12,2.75,BR,1714275162
442,ta`u,-14.2336,-169.5144,29.09,76,17,7.87,AS,1714275162
443,alo,7.4178,6.7371,27.08,86,93,1.94,NG,1714275162
444,mananjary,-21.2167,48.3333,22.71,94,69,4.56,MG,1714275162
445,crane,31.3974,-102.3501,23.35,15,20,7.94,US,1714275162
446,holbrook,40.8123,-73.0784,9.39,71,100,4.19,US,1714275163
447,bongor,10.2806,15.3722,28.52,13,40,1.74,TD,1714275163
448,alta,69.9689,23.2717,-3.59,85,98,2.69,NO,1714275163
449,zara,44.1197,15.2422,14.17,64,22,2.81,HR,1714275163
450,putian,25.4394,119.0103,21.29,91,100,2.31,CN,1714275163
451,kharkhorin,47.1975,102.8238,3.36,33,85,5.15,MN,1714275163
452,st. john's,47.5649,-52.7093,-0.02,85,100,7.56,CA,1714275164
453,saipan,15.1355,145.701,27.97,74,53,6.19,MP,1714275164
454,gransee,53.007,13.1575,8.91,83,58,3.97,DE,1714275164
455,jeddah,21.5169,39.2192,30.96,56,86,2.36,SA,1714275002
456,druzhkivka,48.6301,37.5526,15.24,77,49,5.05,UA,1714275164
457,solnechnyy,50.7214,136.6319,6.06,24,100,5.67,RU,1714275164
458,sola,-13.8833,167.55,28.35,78,63,5.83,VU,1714275164
459,posto fiscal rolim de moura,-13.0833,-62.2667,24.75,90,89,0.97,BR,1714275165
460,porto novo,6.4965,2.6036,27.47,87,69,2.38,BJ,1714275165
461,safi,32.1667,-8.8333,11.39,81,42,1.72,MA,1714275165
462,cozumel,20.5083,-86.9458,26.62,79,82,6.29,MX,1714274962
463,dakhla,23.6848,-15.958,17.54,85,0,7.64,EH,1714275165
464,miramar beach,30.3744,-86.3586,21.54,82,80,4.82,US,1714275165
465,lorain,41.3334,-82.1499,17.73,83,68,6.72,US,1714275165
466,sanming,26.2486,117.6186,27.22,66,100,2.58,CN,1714275166
467,happy valley-goose bay,53.3168,-60.3315,0.47,95,58,1.81,CA,1714275166
468,cayce,33.9657,-81.074,18.0,77,100,3.03,US,1714275166
469,kargasok,59.0556,80.8572,9.26,79,100,7.97,RU,1714275166
470,salaga,8.5508,-0.5188,26.6,74,100,2.46,GH,1714275166
471,cam pha mines,21.0167,107.3,29.72,72,3,3.19,VN,1714275166
472,al jawf,29.5,38.75,24.43,29,100,5.19,SA,1714275167
473,severo-yeniseyskiy,60.3725,93.0408,0.24,98,100,4.06,RU,1714275167
474,yeed,4.55,43.0333,26.02,77,64,6.0,SO,1714275167
475,poyang,28.9924,116.6675,25.94,78,100,2.88,CN,1714275167
476,pariaman,-0.619,100.12,29.15,73,100,3.63,ID,1714275167
477,pont rouge,48.8833,-72.0825,7.6,78,100,4.96,CA,1714275167
478,opuwo,-18.0607,13.84,17.69,42,0,2.3,NA,1714275168
479,santo augusto,-27.8508,-53.7772,20.4,96,4,2.6,BR,1714275168
480,arkhangel'sk,64.5401,40.5433,0.92,97,100,1.28,RU,1714275168
481,tangalle,6.024,80.7911,31.02,64,73,2.47,LK,1714275168
482,arteche,12.2645,125.4048,30.87,61,100,4.63,PH,1714275168
483,jequie,-13.8575,-40.0836,22.46,98,86,0.74,BR,1714275168
484,oliver,49.1831,-119.5524,7.93,93,73,1.4,CA,1714274995
485,huarmey,-10.0681,-78.1522,20.24,88,73,2.75,PE,1714275169
486,yarovoye,52.9273,78.58,13.56,28,98,5.57,RU,1714275169
487,nahiyat ash shinafiyah,31.5874,44.6602,29.78,21,79,3.61,IQ,1714275169
488,tatarka,44.9589,41.9517,17.56,59,89,1.89,RU,1714275169
489,chasong,41.4608,126.6414,18.29,43,92,2.21,KP,1714275169
490,maragogi,-9.0122,-35.2225,25.63,81,46,1.03,BR,1714275170
491,susuman,62.7833,148.1667,0.06,86,100,1.3,RU,1714275170
492,grand baie,-20.0182,57.5802,25.79,80,81,4.95,MU,1714275170
493,meraux,29.933,-89.9498,21.66,81,0,5.69,US,1714275170
494,augusto correa,-1.0217,-46.635,23.17,100,100,0.39,BR,1714275170
495,fale old settlement,-9.3852,-171.2468,29.76,76,20,5.9,TK,1714275171
496,fort mcmurray,56.7268,-111.381,6.43,55,99,2.44,CA,1714274908
497,broken hill,-31.95,141.4333,22.56,25,0,4.14,AU,1714275109
498,horta,38.5333,-28.6333,14.47,68,41,5.43,PT,1714275171
499,albertina,-22.2008,-46.6158,18.21,77,47,2.42,BR,1714275171
500,jackson,42.4165,-122.8345,8.8,85,100,1.16,US,1714275171
501,biga,40.2281,27.2422,10.74,87,85,3.62,TR,1714275171
502,kolonia,50.9333,6.95,14.31,64,100,6.3,DE,1714275144
503,nar'yan-mar,67.6713,53.087,-8.83,93,66,4.35,RU,1714275172
504,auki,-8.7676,160.7034,29.28,78,100,1.58,SB,1714275172
505,medicine hat,50.0501,-110.6683,8.54,84,100,4.5,CA,1714274955
506,glucksburg,54.8333,9.55,9.48,89,96,2.32,DE,1714275172
507,nuuk,64.1835,-51.7216,-2.3,76,3,1.79,GL,1714275172
508,tubarjal,30.4999,38.216,23.28,38,100,1.56,SA,1714275172
509,alto barinas,8.5931,-70.2261,26.59,65,35,0.92,VE,1714275172
510,svishtov,43.6231,25.3539,10.78,81,6,1.6,BG,1714275173
511,nyagan,62.1406,65.3936,1.66,100,100,4.07,RU,1714275173
512,pisco,-13.7,-76.2167,19.56,87,18,1.94,PE,1714275173
513,lionel town,17.8101,-77.2406,24.31,85,4,2.41,JM,1714275173
514,taoudenni,22.6783,-3.9836,25.66,41,95,7.34,ML,1714275173
515,hovd,48.0056,91.6419,3.08,57,0,1.87,MN,1714275173
516,port saint john's,-31.6229,29.5448,16.36,83,35,4.52,ZA,1714275174
517,kalemie,-5.9475,29.1947,22.95,84,38,4.08,CD,1714275174
518,robit,12.0167,39.6333,21.91,62,99,1.05,ET,1714275174
519,rufino,-34.2683,-62.7126,8.26,76,0,2.49,AR,1714275174
520,sudislavl',57.8817,41.7083,7.07,81,14,3.8,RU,1714275174
521,mar del plata,-38.0023,-57.5575,8.63,52,0,6.05,AR,1714275013
522,petauke,-14.2426,31.3253,15.59,82,0,5.58,ZM,1714275175
523,ulladulla,-35.35,150.4667,23.21,48,100,4.82,AU,1714275175
524,namsos,64.4662,11.4957,2.8,84,100,1.55,NO,1714275175
525,carneys point,39.7112,-75.4702,10.38,78,100,2.62,US,1714275175
526,tionk essil,12.7856,-16.5217,24.08,61,1,3.92,SN,1714275175
527,qashyr,53.0675,76.1036,13.3,29,100,7.02,KZ,1714275175
528,san lawrenz,36.0553,14.204,15.76,83,0,13.61,MT,1714275175
529,plastun,44.7561,136.2939,16.62,27,100,3.42,RU,1714275176
530,katsuren-haebaru,26.3369,127.8719,26.21,83,52,2.82,JP,1714275176
531,visby,57.6409,18.296,5.21,86,92,4.74,SE,1714275176
532,mount pearl,47.5166,-52.7813,-0.66,85,100,7.08,CA,1714274947
533,guatire,10.4762,-66.5427,21.27,97,52,0.47,VE,1714275176
534,nchelenge,-9.3451,28.734,18.04,67,29,2.89,ZM,1714275177
535,kabompo,-13.5927,24.2008,13.46,75,4,2.55,ZM,1714275177
536,maturin,9.75,-63.1767,24.89,81,98,3.61,VE,1714275177
537,nadi,-17.8,177.4167,28.72,81,75,1.57,FJ,1714275080
538,atherton,53.5237,-2.4935,4.83,82,100,3.0,GB,1714275170
539,holualoa,19.6228,-155.9522,23.18,74,100,2.94,US,1714275177
540,lexington,37.9887,-84.4777,16.35,83,75,5.86,US,1714275177
541,palembang,-2.9167,104.7458,30.02,72,100,3.03,ID,1714275178
542,valle de la pascua,9.2155,-66.0073,26.09,70,79,3.85,VE,1714275178
543,zapala,-38.8992,-70.0544,5.15,51,87,10.85,AR,1714275178
544,colonel hill,22.7667,-74.2167,24.13,72,64,10.81,BS,1714275178
545,mana,5.6592,-53.7767,25.97,82,92,3.05,GF,1714275178
546,kuching,1.55,110.3333,29.2,86,100,0.95,MY,1714275178
547,arafat,21.3594,39.9664,30.75,45,89,2.03,SA,1714275178
548,wynyard,-41.0,145.7167,15.56,69,90,4.35,AU,1714275179
549,concepcion,-36.827,-73.0498,8.25,86,27,1.46,CL,1714275179
550,sattahip,12.6664,100.9007,32.19,66,8,6.68,TH,1714275179
551,dauphin,51.1494,-100.0502,1.58,58,51,2.4,CA,1714275179
552,nadym,65.5333,72.5167,-0.81,93,100,8.27,RU,1714275179
553,pallippatti,11.9333,78.4167,34.41,25,49,1.17,IN,1714275180
554,sofo-birnin-gwari,11.0154,6.7804,26.02,54,84,1.76,NG,1714275180
555,bolgatanga,10.7856,-0.8514,30.73,52,100,1.84,GH,1714275180
556,genhe,50.7833,121.5167,8.99,20,7,4.41,CN,1714275180
557,kansk,56.2017,95.7175,9.06,59,100,7.26,RU,1714275180
558,shimla,31.1,77.1667,18.89,30,86,0.25,IN,1714275050
559,ad darb,17.7229,42.2526,32.49,49,1,2.8,SA,1714275180
560,kailua-kona,19.6406,-155.9956,25.04,71,100,2.95,US,1714275181
561,santana,-0.0583,-51.1817,23.92,96,99,1.88,BR,1714275181
562,asubulaq,49.5583,83.0558,11.03,30,0,2.14,KZ,1714275181
563,beau vallon,-20.4189,57.6953,25.46,79,89,3.33,MU,1714275181
564,aswan,24.0934,32.907,23.89,22,0,5.32,EG,1714275181
565,taroa,8.7058,171.2275,27.7,82,87,9.08,MH,1714275181
566,fisterra,42.9049,-9.2629,11.62,60,34,4.99,ES,1714275182
567,davlekanovo,54.2215,55.0343,18.84,58,100,7.8,RU,1714275182
568,colonia menno,-22.3667,-59.8167,27.57,68,77,3.08,PY,1714275182
569,minas de marcona,-15.2119,-75.1103,15.5,83,12,3.73,PE,1714275182
570,murud,18.3258,72.965,33.02,47,0,3.46,IN,1714275182
571,porto velho,-8.7619,-63.9039,23.92,97,96,0.15,BR,1714275182
572,soe,-9.8607,124.284,25.22,65,63,4.25,ID,1714275183
573,turtas,58.9417,69.1325,12.53,97,100,4.34,RU,1714275183
574,sorong,-0.8833,131.25,28.77,78,45,3.12,ID,1714275183
575,pasighat,28.0667,95.3333,26.67,53,80,1.1,IN,1714275183
576,kayangel,8.0823,134.7173,28.14,83,100,10.49,PW,1714275183
577,kafanchan,9.5833,8.3,24.48,66,100,0.14,NG,1714275184
578,igrim,63.1906,64.4162,1.6,81,100,4.61,RU,1714275184
579,katrineholm,58.9959,16.2072,1.08,96,95,1.94,SE,1714275184
580,saint-joseph,-21.3667,55.6167,25.4,71,85,0.59,RE,1714275184
581,kharp,66.8014,65.8081,-5.04,85,11,5.13,RU,1714275184
582,pierre,44.3683,-100.351,7.18,87,100,5.03,US,1714275184
583,la passe,45.5549,-0.8967,10.25,77,54,5.52,FR,1714275185
584,smara,26.7384,-11.6719,15.49,84,0,3.58,EH,1714275185
585,cururupu,-1.8283,-44.8683,23.11,100,100,0.68,BR,1714275185
586,cooper's town,26.8667,-77.5167,22.32,63,97,10.58,BS,1714275185
587,nobeoka,32.5833,131.6667,21.97,78,91,3.26,JP,1714275185
588,lerma,42.0261,-3.7598,1.6,94,9,2.62,ES,1714275186
589,kyakhta,50.3508,106.4494,7.4,32,20,1.59,RU,1714275186
590,bulayevo,54.9056,70.4439,10.9,83,100,9.06,KZ,1714275186
591,jerada,34.31,-2.16,9.96,78,81,3.18,MA,1714275186
592,morehead city,34.7229,-76.726,17.8,76,100,3.41,US,1714275186
593,tual,-5.6667,132.75,28.99,79,100,8.2,ID,1714275187
594,bucerias,20.75,-105.3333,20.95,86,46,0.67,MX,1714275107
595,kapuskasing,49.4169,-82.4331,6.65,95,100,5.55,CA,1714275187
596,bodmin,50.4715,-4.7243,5.47,91,100,3.52,GB,1714275187
597,kamikawa,43.84,142.7711,12.89,63,88,5.0,JP,1714275187
598,vorkuta,67.5,64.0,-9.96,92,96,6.47,RU,1714275187
599,gunjur,13.2019,-16.7339,22.79,76,1,5.7,GM,1714275188
600,melekeok village,7.4957,134.6367,27.29,85,100,7.79,PW,1714275188
601,pagsanghan,11.9657,124.7212,34.41,46,99,2.72,PH,1714275188
602,salaverry,-8.2333,-78.9667,19.44,86,72,3.08,PE,1714275188
