City_ID,City,Lat,Lng,Max Temp,Humidity,Cloudiness,Wind Speed,Country,Date
0,waitangi,-43.9535,-176.5597,14.34,95,100,3.13,NZ,1714503877
1,guerrero negro,27.9769,-114.0611,19.9,54,92,4.21,MX,1714503877
2,vilyuchinsk,52.9306,158.4028,2.15,75,3,5.11,RU,1714503877
3,malangali,-8.5667,34.85,17.45,86,32,5.02,TZ,1714503877
4,edinburgh of the seven seas,-37.0676,-12.3116,13.4,72,100,13.36,SH,1714503878
5,codrington,-38.2667,141.9667,13.31,74,100,6.95,AU,1714503878
6,west island,-12.1568,96.8225,27.99,89,75,3.09,CC,1714503878
7,port-aux-francais,-49.35,70.2167,4.41,77,68,15.89,TF,1714503878
8,adamstown,-25.066,-130.1015,23.4,77,50,5.56,PN,1714503878
9,isafjordur,66.0755,-23.124,5.02,75,100,3.6,IS,1714503878
10,punta arenas,-53.15,-70.9167,5.06,65,0,4.63,CL,1714503879
11,ust-nera,64.5667,143.2,-11.65,98,100,2.21,RU,1714503879
12,nanganga,-10.3833,39.15,22.19,92,6,0.97,TZ,1714503879
13,harstad,68.799,16.5293,6.2,87,95,1.34,NO,1714503879
14,sinabang,2.4803,96.3801,26.77,87,98,2.46,ID,1714503879
15,klyuchi,52.2667,79.1667,4.19,64,100,3.97,RU,1714503879
16,warmbaths,-24.8833,28.2833,18.49,37,0,2.07,ZA,1714503863
17,rongelap,11.1635,166.8941,27.5,81,100,8.72,MH,1714503880
18,alofi,-19.0595,-169.9187,24.94,94,20,1.54,NU,1714503880
19,invercargill,-46.4,168.35,7.79,98,100,2.24,NZ,1714503880
20,frutal,-20.0247,-48.9406,32.29,31,0,1.86,BR,1714503880
21,north bend,43.4065,-124.2243,12.31,82,100,7.72,US,1714503880
22,aden,12.7794,45.0367,29.29,84,0,7.79,YE,1714503881
23,chonchi,-42.6128,-73.8092,11.18,58,84,2.7,CL,1714503881
24,neiafu,-18.65,-173.9833,26.38,89,40,0.0,TO,1714503881
25,tazovsky,67.4667,78.7,-16.58,99,95,2.36,RU,1714503881
26,anaconda,46.1285,-112.9423,3.55,57,100,3.59,US,1714503881
27,st. john's,47.5649,-52.7093,6.75,98,100,8.94,CA,1714503612
28,ancud,-41.8697,-73.8203,9.5,59,7,4.3,CL,1714503881
29,grytviken,-54.2811,-36.5092,-0.64,73,23,3.39,GS,1714503882
30,cockburn town,21.4612,-71.1419,25.3,72,62,8.55,TC,1714503882
31,coquimbo,-29.9533,-71.3436,20.85,37,0,5.14,CL,1714503882
32,artigas,-30.4,-56.4667,27.39,84,64,5.23,UY,1714503882
33,taoudenni,22.6783,-3.9836,28.69,7,97,2.79,ML,1714503882
34,bredasdorp,-34.5322,20.0403,15.55,81,0,1.86,ZA,1714503883
35,olonkinbyen,70.9221,-8.7187,-0.31,84,100,1.91,SJ,1714503883
36,petropavlovsk-kamchatsky,53.0452,158.6483,1.33,70,0,8.0,RU,1714503883
37,saipan,15.1355,145.701,27.39,78,20,5.14,MP,1714503883
38,aasiaat,68.7098,-52.8699,-6.73,73,32,5.11,GL,1714503883
39,kununurra,-15.7667,128.7333,22.99,73,61,2.06,AU,1714503884
40,bonthe,7.5264,-12.505,28.76,77,76,4.97,SL,1714503884
41,karakocan,38.9558,40.0386,17.72,67,80,1.74,TR,1714503884
42,vernon,50.2581,-119.2691,13.46,50,100,2.68,CA,1714503609
43,twin falls,42.3505,-114.6445,11.19,26,0,5.14,US,1714503884
44,fort bragg,35.139,-79.006,28.44,48,40,3.6,US,1714503783
45,namie,37.4833,141.0,18.17,81,100,2.05,JP,1714503884
46,stanley,54.868,-1.6985,14.77,67,20,3.6,GB,1714503885
47,coracora,-15.0333,-73.7833,16.74,67,93,3.69,PE,1714503885
48,crane,31.3974,-102.3501,31.9,30,0,7.09,US,1714503885
49,constantia,44.1833,28.65,11.5,73,1,7.17,RO,1714503885
50,conception bay south,47.4999,-52.9981,6.62,99,100,1.54,CA,1714503885
51,lebu,-37.6167,-73.65,10.96,78,100,2.3,CL,1714503886
52,mejit,10.2753,170.8646,27.77,77,99,9.55,MH,1714503886
53,albany,42.6001,-73.9662,22.63,91,100,4.14,US,1714503886
54,yellowknife,62.456,-114.3525,-0.71,69,75,3.6,CA,1714503666
55,coxen hole,16.3244,-86.5366,27.69,79,85,5.38,HN,1714503886
56,hell-ville,-13.4,48.2667,28.52,75,99,2.42,MG,1714503886
57,varkala,8.7341,76.7067,27.88,76,100,1.78,IN,1714503886
58,agbabu,6.5886,4.8343,28.19,84,58,2.45,NG,1714503887
59,margaret river,-33.95,115.0667,15.96,77,100,5.34,AU,1714503651
60,afaahiti,-17.75,-149.2833,26.93,73,88,7.18,PF,1714503887
61,lamin,13.3522,-16.4339,34.06,46,95,4.2,GM,1714503887
62,minas de marcona,-15.2119,-75.1103,23.01,53,1,6.44,PE,1714503887
63,imperatriz,-5.5264,-47.4917,26.03,89,75,1.03,BR,1714503887
64,kolonia town,6.964,158.206,28.41,80,100,9.54,FM,1714503888
65,ushuaia,-54.8,-68.3,3.81,75,75,3.09,AR,1714503761
66,papatowai,-46.5619,169.4708,9.22,91,100,5.37,NZ,1714503888
67,thunder bay,48.4001,-89.3168,7.99,66,100,2.57,CA,1714503888
68,arkhara,49.4212,130.0842,9.31,47,100,0.45,RU,1714503889
69,nagqu,31.5,92.0,0.98,20,100,1.31,CN,1714503889
70,dzhetygara,52.1908,61.2006,5.87,65,7,3.6,KZ,1714503889
71,anadyr,64.75,177.4833,-3.72,80,0,2.0,RU,1714503889
72,kone,-21.0595,164.8658,19.02,87,0,2.0,NC,1714503889
73,longyearbyen,78.2186,15.6401,0.91,80,75,4.12,SJ,1714503890
74,flying fish cove,-10.4217,105.6791,26.82,83,75,5.14,CX,1714503890
75,tobelo,1.7284,128.0095,26.4,84,100,0.99,ID,1714503890
76,blackmans bay,-43.0167,147.3167,7.07,89,10,0.89,AU,1714503890
77,nadym,65.5333,72.5167,-9.46,94,52,4.3,RU,1714503891
78,sidirokastro,41.2347,23.3867,15.63,83,21,1.51,GR,1714503891
79,puerto ayora,-0.7393,-90.3518,27.98,70,97,4.91,EC,1714503891
80,ardabil,38.2498,48.2933,11.75,66,40,6.17,IR,1714503891
81,wailua homesteads,22.0669,-159.378,26.24,75,40,4.12,US,1714503891
82,kurumkan,54.3,110.3,5.07,78,100,4.47,RU,1714503892
83,terrace,54.5163,-128.6035,10.68,66,75,3.09,CA,1714503892
84,tangalle,6.024,80.7911,27.09,87,100,1.89,LK,1714503892
85,thompson,55.7435,-97.8558,2.09,87,100,1.03,CA,1714503892
86,iqaluit,63.7506,-68.5145,-4.15,85,75,2.57,CA,1714503893
87,armacao de buzios,-22.7469,-41.8817,30.09,83,0,7.59,BR,1714503893
88,bochum,51.4833,7.2167,21.48,61,100,3.0,DE,1714503893
89,kadugli,11.0167,29.7167,31.78,11,8,3.25,SD,1714503893
90,bodo,67.28,14.405,8.21,92,75,4.63,NO,1714503893
91,abeche,13.8292,20.8324,33.09,8,7,4.55,TD,1714503893
92,sitka,57.0531,-135.33,8.94,71,75,5.66,US,1714503894
93,ndele,8.4109,20.6473,30.94,39,100,1.94,CF,1714503894
94,tiksi,71.6872,128.8694,-16.87,99,100,0.69,RU,1714503894
95,turpan,42.9333,89.1667,21.44,9,0,1.71,CN,1714503894
96,hithadhoo,-0.6,73.0833,28.09,76,100,6.53,MV,1714503894
97,potosi,-19.5836,-65.7531,19.48,28,20,5.14,BO,1714503894
98,villa garcia,22.1667,-101.95,27.2,12,99,5.34,MX,1714503895
99,santa elena de uairen,4.6167,-61.1333,24.29,74,87,0.3,VE,1714503895
100,san luis de la loma,17.2706,-100.8939,30.09,60,98,3.94,MX,1714503895
101,hawaiian paradise park,19.5933,-154.9731,25.02,88,75,4.63,US,1714503895
102,nago,26.5881,127.9761,27.3,89,100,5.23,JP,1714503895
103,kalymnos,36.95,26.9833,17.74,82,0,3.6,GR,1714503895
104,murashi,59.3999,48.9615,9.45,89,63,5.61,RU,1714503896
105,tweed heads,-28.1817,153.547,18.02,91,42,4.12,AU,1714503574
106,al jawf,29.5,38.75,23.39,37,88,4.76,SA,1714503896
107,bethel,41.3712,-73.414,18.08,77,100,4.12,US,1714503896
108,gambiran satu,-8.3939,114.1464,23.37,99,82,1.11,ID,1714503896
109,pisco,-13.7,-76.2167,26.03,57,0,1.54,PE,1714503896
110,ilulissat,69.2167,-51.1,-4.99,68,75,4.63,GL,1714503897
111,beldanga,23.9333,88.25,31.28,40,0,3.75,IN,1714503897
112,sassandra,4.95,-6.0833,28.27,83,24,3.75,CI,1714503897
113,blairgowrie,56.5916,-3.3405,11.68,83,26,1.79,GB,1714503897
114,fale old settlement,-9.3852,-171.2468,29.43,76,100,6.44,TK,1714503897
115,avallon,47.4833,3.9,12.21,95,100,2.05,FR,1714503898
116,aykhal,66.0,111.5,-7.88,94,100,3.29,RU,1714503898
117,egilsstadir,65.2653,-14.3948,2.95,87,100,5.66,IS,1714503898
118,geraldton,-28.7667,114.6,23.23,60,100,10.29,AU,1714503898
119,mszana dolna,49.6743,20.0799,16.96,74,0,2.69,PL,1714503898
120,ciudad lazaro cardenas,17.9583,-102.2,29.01,59,46,5.02,MX,1714503898
121,karratha,-20.7377,116.8463,25.12,48,0,4.09,AU,1714503899
122,fort mcmurray,56.7268,-111.381,3.73,87,100,4.63,CA,1714503606
123,la passe,45.5549,-0.8967,18.13,89,75,4.42,FR,1714503899
124,holualoa,19.6228,-155.9522,24.91,81,40,3.6,US,1714503899
125,polczyn-zdroj,53.7642,16.0957,20.72,71,84,3.92,PL,1714503899
126,kouroussa,10.65,-9.8833,34.08,27,5,1.53,GN,1714503900
127,rio grande,-32.035,-52.0986,23.06,86,100,3.1,BR,1714503900
128,broken hill,-31.95,141.4333,7.58,63,0,5.56,AU,1714503900
129,aldinga beach,-35.2793,138.4604,10.7,83,0,4.16,AU,1714503900
130,kodiak,57.79,-152.4072,5.73,75,100,4.63,US,1714503900
131,rong kwang,18.339,100.3174,29.02,40,39,0.76,TH,1714503900
132,kingston,17.997,-76.7936,31.76,62,20,10.29,JM,1714503901
133,coruripe,-10.1256,-36.1756,28.3,69,1,3.41,BR,1714503671
134,praia da vitoria,38.7333,-27.0667,18.14,72,40,0.65,PT,1714503901
135,iskateley,67.6803,53.1512,-6.66,94,94,2.68,RU,1714503901
136,toamasina,-18.1667,49.3833,24.0,100,75,1.03,MG,1714503901
137,clarinda,40.7419,-95.0383,26.18,47,20,9.26,US,1714503901
138,hermanus,-34.4187,19.2345,16.06,86,6,4.72,ZA,1714503902
139,macia,-25.0269,33.0989,20.28,62,0,2.25,MZ,1714503902
140,bontang,0.1333,117.5,27.57,82,100,2.1,ID,1714503902
141,bilibino,68.0546,166.4372,-8.59,91,100,1.16,RU,1714503902
142,sumenep,-7.0167,113.8667,26.16,88,100,4.5,ID,1714503902
143,cabo san lucas,22.8909,-109.9124,29.78,48,100,5.37,MX,1714503465
144,puerto natales,-51.7236,-72.4875,6.25,56,75,2.57,CL,1714503903
145,saint-joseph,-21.3667,55.6167,21.72,80,100,4.76,RE,1714503903
146,gabu,12.2833,-14.2167,38.6,22,45,1.54,GW,1714503903
147,port mathurin,-19.6833,63.4167,25.75,64,71,9.23,MU,1714503903
148,jamestown,42.097,-79.2353,16.8,94,75,4.12,US,1714503697
149,whitehorse,60.7161,-135.0538,8.94,65,40,3.09,CA,1714503904
150,aniva,46.7144,142.5294,3.39,86,100,3.59,RU,1714503904
151,mo i rana,66.3128,14.1428,7.4,78,0,2.68,NO,1714503904
152,atafu village,-8.5421,-172.5159,29.81,74,100,6.19,TK,1714503904
153,east ballina,-28.8667,153.5833,16.0,91,58,5.11,AU,1714503904
154,remire-montjoly,4.9167,-52.2667,30.02,74,40,7.72,GF,1714503905
155,kirovo-chepetsk,58.5539,50.0399,11.61,96,99,5.16,RU,1714503905
156,prince rupert,54.3161,-130.3201,8.05,83,100,5.66,CA,1714503905
157,taksimo,56.3444,114.8794,4.76,85,100,3.1,RU,1714503905
158,qaqortoq,60.7167,-46.0333,3.47,80,100,2.14,GL,1714503905
159,tolanaro,-25.0319,46.9987,23.04,94,20,8.23,MG,1714503905
160,vallegrande,-18.4897,-64.1069,25.18,54,5,5.13,BO,1714503906
161,port elizabeth,-33.918,25.5701,17.4,85,0,7.2,ZA,1714503906
162,puerto san jose,13.9256,-90.8244,32.03,61,40,4.12,GT,1714503906
163,inongo,-1.95,18.2667,23.45,93,100,1.46,CD,1714503906
164,college,64.8569,-147.8028,8.97,52,75,1.54,US,1714503906
165,buka,40.8108,69.1986,14.58,59,4,1.53,UZ,1714503906
166,illizi,26.4833,8.4667,32.89,34,100,8.6,DZ,1714503907
167,sufalat sama'il,23.3167,58.0167,27.82,38,80,1.29,OM,1714503907
168,nar'yan-mar,67.6713,53.087,-6.61,94,93,2.68,RU,1714503907
169,luena,-11.7833,19.9167,16.1,63,16,1.07,AO,1714503907
170,awjilah,29.1081,21.2869,31.18,14,40,4.29,LY,1714503908
171,kapa'a,22.0752,-159.319,26.99,75,40,4.12,US,1714503908
172,hamilton,39.1834,-84.5333,24.85,50,20,3.6,US,1714503908
173,coahuayana de hidalgo,18.7,-103.6583,31.92,42,4,3.67,MX,1714503908
174,jolo,6.05,121.0167,25.51,93,100,2.17,PH,1714503908
175,bamboo flat,11.7,92.7167,27.45,73,100,2.17,IN,1714503909
176,cidade velha,14.9167,-23.6167,25.26,61,0,9.26,CV,1714503909
177,klaksvik,62.2266,-6.589,9.51,94,100,5.76,FO,1714503909
178,luderitz,-26.6481,15.1594,18.49,72,0,3.54,NA,1714503909
179,sao joao da barra,-21.6403,-41.0511,29.05,84,0,4.59,BR,1714503909
180,annavasal,10.4667,78.7,31.77,68,100,5.39,IN,1714503910
181,kamina,-8.7386,24.9906,21.37,72,99,1.12,CD,1714503910
182,yavas,54.4159,42.8491,13.33,67,94,4.17,RU,1714503910
183,manghit,42.1156,60.0597,18.99,16,6,1.3,UZ,1714503910
184,piacabucu,-10.4056,-36.4344,28.66,69,72,2.93,BR,1714503910
185,bayganin,48.6947,55.8742,8.9,66,0,2.22,KZ,1714503910
186,jalingo,8.8833,11.3667,33.87,39,98,1.69,NG,1714503911
187,trujillo,-8.116,-79.03,19.98,88,75,5.66,PE,1714503911
188,kochenevo,55.0218,82.202,-2.34,56,100,2.52,RU,1714503911
189,margate,51.3813,1.3862,13.28,89,52,2.9,GB,1714503911
190,meiganga,6.5167,14.3,20.45,96,100,3.56,CM,1714503911
191,revda,56.801,59.9303,4.21,93,100,3.73,RU,1714503912
192,nema,57.5067,50.5011,11.68,87,100,7.03,RU,1714503912
193,badger,64.8,-147.5333,8.93,50,75,1.54,US,1714503912
194,primero de mayo,-32.2552,-58.4228,25.31,94,100,1.22,AR,1714503912
195,vigan,17.5747,120.3869,27.81,82,0,2.53,PH,1714503912
196,lompoc,34.6391,-120.4579,25.94,57,0,8.23,US,1714503767
197,saldanha,-33.0117,17.9442,16.03,94,0,3.67,ZA,1714503913
198,argenton-sur-creuse,46.59,1.5198,14.19,87,100,3.42,FR,1714503913
199,kenora,49.8167,-94.4337,6.54,61,75,1.54,CA,1714503913
200,nabire,-3.3667,135.4833,24.96,94,100,1.1,ID,1714503913
201,acajutla,13.5928,-89.8275,30.74,65,20,5.46,SV,1714503913
202,tazacorte,28.629,-17.9293,19.54,67,20,5.14,ES,1714503913
203,ribeira grande,38.5167,-28.7,19.22,68,20,3.6,PT,1714503914
204,queenstown,-31.8976,26.8753,20.52,36,100,4.02,ZA,1714503699
205,estevan,49.1334,-102.9842,7.19,93,100,5.14,CA,1714503914
206,fada,9.5667,8.3,28.49,57,100,2.33,NG,1714503914
207,haimen,23.1935,116.6142,20.94,94,100,1.83,CN,1714503914
208,uturoa,-16.7333,-151.4333,27.14,76,100,9.27,PF,1714503914
209,kruisfontein,-34.0033,24.7314,14.94,83,61,2.27,ZA,1714503914
210,east london,-33.0153,27.9116,19.52,82,40,3.6,ZA,1714503915
211,westport,41.1415,-73.3579,18.94,82,100,8.75,US,1714503915
212,sydney,-33.8679,151.2073,14.69,93,100,8.23,AU,1714503455
213,bima,-8.4667,118.7167,24.29,97,52,1.37,ID,1714503915
214,mboursou lere,9.7639,14.1539,36.39,22,91,1.3,TD,1714503915
215,natchez,31.5604,-91.4032,27.36,61,75,0.0,US,1714503915
216,vadso,70.0744,29.7487,2.49,87,75,1.54,NO,1714503916
217,sheridan,44.8333,-106.9173,12.23,33,0,7.72,US,1714503916
218,touros,-5.1989,-35.4608,27.54,82,99,2.4,BR,1714503916
219,urangan,-25.3,152.9,20.19,81,2,5.11,AU,1714503916
220,ad dabbah,18.05,30.95,31.51,10,0,4.9,SD,1714503916
221,pacific grove,36.6177,-121.9166,19.56,71,0,6.71,US,1714503719
222,arraial do cabo,-22.9661,-42.0278,29.98,62,0,6.69,BR,1714503916
223,colonia,50.9333,6.95,21.64,60,0,2.06,DE,1714503917
224,san patricio,28.017,-97.5169,30.86,63,64,6.34,US,1714503917
225,buala,-8.145,159.5921,27.74,81,100,1.36,SB,1714503917
226,camamu,-13.9447,-39.1039,27.33,79,99,3.61,BR,1714503917
227,songjianghe,42.1859,127.479,1.89,73,5,2.38,CN,1714503917
228,marti,22.9475,-80.9203,31.32,45,32,5.54,CU,1714503918
229,sandnessjoen,66.0217,12.6316,12.06,50,0,1.54,NO,1714503918
230,kangding,30.0513,101.9603,6.89,99,100,1.27,CN,1714503918
231,takestan,36.0696,49.6959,15.36,65,100,4.29,IR,1714503918
232,centerton,36.3598,-94.2852,29.05,48,0,7.2,US,1714503918
233,georgetown,5.4112,100.3354,29.41,85,40,1.54,MY,1714503670
234,bengkulu,-3.8004,102.2655,25.94,92,100,1.53,ID,1714503918
235,al bayda',32.7627,21.7551,16.96,41,14,4.83,LY,1714503919
236,ambodifotatra,-16.9833,49.85,26.15,83,100,3.75,MG,1714503919
237,avarua,-21.2078,-159.775,27.03,69,75,8.23,CK,1714503919
238,mount gambier,-37.8333,140.7667,10.5,84,2,3.36,AU,1714503919
239,vasylivka,47.4369,35.2742,13.57,51,0,4.64,UA,1714503920
240,puerto colombia,10.9878,-74.9547,34.05,73,21,7.07,CO,1714503920
241,kisangani,0.5167,25.2,25.42,78,62,0.7,CD,1714503920
242,quellon,-43.1167,-73.6167,10.0,53,66,3.71,CL,1714503920
243,neya,58.2972,43.8681,9.83,76,2,5.92,RU,1714503920
244,mahajanga,-15.7167,46.3167,28.01,69,40,2.06,MG,1714503920
245,farasan,16.7022,42.1183,30.06,79,0,2.67,SA,1714503921
246,igarka,67.4667,86.5833,-18.32,98,100,4.02,RU,1714503921
247,oraiokastro,40.7615,22.9072,17.54,69,79,3.58,GR,1714503921
248,san fernando de monte cristi,19.8667,-71.65,27.51,70,97,10.31,DO,1714503921
249,moyynkum,44.2914,72.9469,15.92,26,6,4.76,KZ,1714503921
250,sisimiut,66.9395,-53.6735,-2.62,71,19,2.36,GL,1714503922
251,khanpur mahar,27.8436,69.4137,25.29,9,0,3.66,PK,1714503922
252,lihue,21.9789,-159.3672,26.58,75,40,4.12,US,1714503922
253,antofagasta,-23.65,-70.4,18.6,76,16,4.51,CL,1714503922
254,enewetak,11.3474,162.3373,27.38,76,38,8.27,MH,1714503922
255,galdar,28.147,-15.6502,20.28,65,41,6.86,ES,1714503922
256,carbonear,47.7332,-53.2148,7.0,99,100,9.8,CA,1714503923
257,north haven,41.3909,-72.8595,19.42,78,100,8.23,US,1714503923
258,miyazu,35.5333,135.1833,12.22,94,94,2.33,JP,1714503923
259,boca suno,-0.7167,-77.1333,29.77,72,85,1.18,EC,1714503923
260,zheshart,62.0731,49.5733,2.13,87,100,3.59,RU,1714503923
261,lae,-6.7221,146.9847,22.88,92,100,1.67,PG,1714503923
262,selfoss,63.9331,-20.9971,8.91,46,5,3.93,IS,1714503923
263,saint-philippe,-21.3585,55.7679,22.28,82,100,5.4,RE,1714503924
264,susuman,62.7833,148.1667,-6.68,89,100,2.24,RU,1714503924
265,mermoz boabab,14.7065,-17.4758,32.31,57,54,6.17,SN,1714503924
266,kegen,43.0197,79.2203,5.07,54,75,1.28,KZ,1714503924
267,carnarvon,-24.8667,113.6333,25.04,65,60,5.58,AU,1714503924
268,undurkhaan,47.3194,110.6556,9.71,26,17,5.15,MN,1714503924
269,bikenibeu village,1.3673,173.1241,28.98,84,40,5.66,KI,1714503925
270,kourou,5.1552,-52.6478,30.03,69,41,4.18,GF,1714503925
271,makoua,0.0069,15.6333,23.83,89,99,1.07,CG,1714503925
272,stephenville,32.2207,-98.2023,29.96,63,40,5.66,US,1714503925
273,yunyang,33.4474,112.7142,10.56,73,3,1.67,CN,1714503925
274,churapcha,62.0025,132.4325,-3.38,81,5,2.26,RU,1714503925
275,ciudad acuna,29.3232,-100.9522,31.16,57,75,7.2,MX,1714503926
276,port alfred,-33.5906,26.891,16.21,81,80,1.34,ZA,1714503926
277,kalmunai,7.4167,81.8167,27.71,86,93,4.17,LK,1714503926
278,kazanskoye,55.6448,69.235,2.58,51,4,3.0,RU,1714503926
279,northam,51.0333,-4.2167,10.37,93,100,4.9,GB,1714503926
280,dudinka,69.4058,86.1778,-18.02,98,100,3.37,RU,1714503926
281,weno,7.4515,151.8468,27.97,89,100,3.6,FM,1714503926
282,villa gesell,-37.2639,-56.973,16.7,80,100,6.62,AR,1714503927
283,banda aceh,5.5577,95.3222,28.01,80,73,3.8,ID,1714503927
284,ulsteinvik,62.3432,5.8487,16.5,75,84,1.37,NO,1714503927
285,christchurch,-43.5333,172.6333,12.52,89,75,4.12,NZ,1714503068
286,gebeit,21.0667,36.3167,25.14,56,0,1.63,SD,1714503927
287,chui,-33.6971,-53.4616,22.01,90,85,1.8,UY,1714503927
288,anloga,5.7947,0.8973,29.35,83,100,6.52,GH,1714503928
289,palu,-0.8917,119.8707,24.69,97,100,1.64,ID,1714503928
290,muang xay,20.7,101.9833,24.05,42,5,0.88,LA,1714503928
291,taltal,-25.4,-70.4833,20.4,65,25,2.92,CL,1714503664
292,lagoa,39.05,-27.9833,16.36,70,98,1.71,PT,1714503928
293,yaren,-0.5472,166.916,28.3,78,100,3.92,NR,1714503928
294,qarauyl,48.9451,79.255,13.15,75,100,5.97,KZ,1714503929
295,alghero,40.5589,8.3181,18.05,77,0,1.03,IT,1714503929
296,linxi,39.7,118.4333,12.87,29,0,3.68,CN,1714503929
297,nemuro,43.3236,145.575,4.49,89,100,8.29,JP,1714503929
298,campbell river,50.0163,-125.2446,11.92,66,40,1.54,CA,1714503929
299,callao,-12.0667,-77.15,23.16,68,0,5.14,PE,1714503929
300,machico,32.7,-16.7667,19.84,78,40,6.69,PT,1714503930
301,niamey,13.5137,2.1098,43.16,7,42,3.09,NE,1714503930
302,boende,-0.2167,20.8667,24.12,87,100,0.88,CD,1714503930
303,ichenhausen,48.3712,10.3071,21.27,79,15,2.29,DE,1714503930
304,laguna de perlas,12.3429,-83.6712,30.05,67,7,3.34,NI,1714503930
305,labrador city,52.9463,-66.9114,0.1,56,75,8.75,CA,1714503931
306,ubinskoye,55.3068,79.6802,-0.16,59,93,2.52,RU,1714503931
307,dudestii vechi,46.05,20.4833,16.65,53,2,5.87,RO,1714503931
308,wotho,10.1657,166.0102,27.53,80,100,8.31,MH,1714503931
309,ciudad bolivar,8.1222,-63.5497,38.45,26,41,3.36,VE,1714503931
310,aldama,22.9167,-98.0667,32.11,33,1,4.38,MX,1714503931
311,neelankarai,12.9455,80.2575,31.15,84,20,4.63,IN,1714503932
312,siwa oasis,29.2041,25.5195,29.23,17,0,2.24,EG,1714503932
313,haiku-pauwela,20.9219,-156.3051,25.12,78,20,2.57,US,1714503932
314,vorgashor,67.5833,63.95,-12.35,97,98,2.48,RU,1714503932
315,fort st. john,56.2499,-120.8529,1.94,100,100,1.03,CA,1714503932
316,thames,-37.1333,175.5333,10.26,96,43,1.1,NZ,1714503932
317,alajarvi,63.0,23.8167,3.91,91,5,1.92,FI,1714503933
318,narasannapeta,18.4167,84.05,28.99,77,26,4.85,IN,1714503933
319,zouerate,22.7187,-12.4521,25.32,13,0,5.66,MR,1714503933
320,kotlas,61.2611,46.6556,5.59,98,100,2.24,RU,1714503933
321,murray bridge,-35.1167,139.2667,9.63,86,0,1.75,AU,1714503933
322,okha,53.5739,142.9478,0.7,89,100,1.34,RU,1714503934
323,belmonte,-15.8631,-38.8828,26.55,82,4,4.0,BR,1714503934
324,namtsy,62.7161,129.6658,-11.12,98,65,1.5,RU,1714503934
325,la libertad,-2.2333,-80.9,26.39,76,44,4.36,EC,1714503934
326,inhambane,-23.865,35.3833,21.69,76,0,2.34,MZ,1714503934
327,katsuura,35.1333,140.3,19.01,94,100,4.02,JP,1714503934
328,kabo,7.6994,18.629,30.88,32,85,2.36,CF,1714503935
329,berlin,52.5244,13.4105,24.43,49,0,3.13,DE,1714503610
330,cabedelo,-6.9811,-34.8339,29.37,71,39,2.82,BR,1714503935
331,kalix,65.853,23.1565,0.81,95,100,1.79,SE,1714503935
332,tura,25.5198,90.2201,25.32,91,21,4.79,IN,1714503935
333,kapuskasing,49.4169,-82.4331,8.05,93,100,4.63,CA,1714503935
334,port saint john's,-31.6229,29.5448,24.21,53,30,2.75,ZA,1714503936
335,dyurtyuli,55.4911,54.8688,11.49,69,100,6.36,RU,1714503936
336,puerto carreno,6.189,-67.4859,32.99,58,40,3.09,CO,1714503936
337,carutapera,-1.195,-46.02,24.92,97,100,2.94,BR,1714503936
338,kharp,66.8014,65.8081,-12.38,93,40,3.65,RU,1714503936
339,gemena,3.25,19.7667,24.17,78,90,1.02,CD,1714503936
340,gadzhiyevo,69.2551,33.3362,1.01,95,100,3.38,RU,1714503937
341,cururupu,-1.8283,-44.8683,24.16,99,100,1.09,BR,1714503937
342,varberg,57.1056,12.2508,16.8,61,100,6.22,SE,1714503937
343,ilheus,-14.7889,-39.0494,28.9,74,40,3.6,BR,1714503881
344,kill devil hills,36.0307,-75.676,27.0,60,0,5.66,US,1714503937
345,amahai,-3.3333,128.9167,25.69,90,100,1.27,ID,1714503938
346,namdrik,5.5994,168.1028,28.16,84,100,9.86,MH,1714503938
347,polyarnyy,69.1989,33.4478,0.87,94,100,3.55,RU,1714503938
348,tralee,52.2704,-9.7026,8.14,93,75,0.51,IE,1714503938
349,port lincoln,-34.7333,135.8667,13.88,69,98,7.04,AU,1714503938
350,es castell,39.8795,4.2854,14.38,94,75,2.06,ES,1714503938
351,axim,4.8699,-2.2405,28.58,84,100,3.55,GH,1714503939
352,songyang,34.4553,113.0281,10.75,71,0,1.73,CN,1714503939
353,khandyga,62.6667,135.6,-13.64,98,73,1.07,RU,1714503939
354,postbauer-heng,49.3053,11.3572,20.02,75,100,1.97,DE,1714503939
355,de aar,-30.6497,24.0123,21.04,35,61,2.98,ZA,1714503939
356,alo,7.4178,6.7371,31.33,61,99,1.89,NG,1714503939
357,mul,20.0667,79.6667,35.47,26,42,2.02,IN,1714503940
358,canico,32.6333,-16.85,19.84,79,40,6.69,PT,1714503940
359,dalcahue,-42.3628,-73.7022,10.67,61,0,3.6,CL,1714503940
360,registro,-24.4875,-47.8436,34.51,39,0,1.28,BR,1714503940
361,nuuk,64.1835,-51.7216,-1.66,74,40,6.71,GL,1714503940
362,ostersund,63.1792,14.6357,11.25,40,84,1.54,SE,1714503940
363,bardai,11.65,7.2333,33.32,10,0,3.56,NG,1714503941
364,taro,-8.3862,115.28,23.0,100,100,0.32,ID,1714503941
365,parry sound,45.3501,-80.033,13.03,82,100,2.71,CA,1714503941
366,ilhabela,-23.7781,-45.3581,26.86,75,6,2.22,BR,1714503941
367,adh dhayd,25.2881,55.8816,29.4,47,0,4.84,AE,1714503941
368,hotan,37.0997,79.9269,14.82,20,100,4.5,CN,1714503941
369,yuzhno-kurilsk,44.0306,145.8556,3.54,74,97,11.19,RU,1714503941
370,asubulaq,49.5583,83.0558,7.54,95,100,2.32,KZ,1714503942
371,javea,38.7833,0.1667,19.91,60,36,1.34,ES,1714503942
372,gurupi,-11.7292,-49.0686,32.75,43,3,3.03,BR,1714503942
373,trancas,-26.2314,-65.2803,30.79,38,0,4.08,AR,1714503942
374,yashan,22.1975,109.9419,22.33,94,7,2.55,CN,1714503942
375,korla,41.7597,86.1469,16.2,17,100,1.52,CN,1714503943
376,tchintabaraden,15.8969,5.7985,35.93,6,67,3.75,NE,1714503943
377,guanica,17.9716,-66.908,29.92,1,21,6.03,PR,1714503943
378,howard springs,-12.497,131.047,25.95,86,99,2.44,AU,1714503943
379,manismata,-2.4667,111.0333,24.69,100,100,1.15,ID,1714503943
380,dalbandin,28.8947,64.4101,20.17,19,0,3.48,PK,1714503944
381,callaway,30.153,-85.5699,28.44,74,40,7.72,US,1714503944
382,yigo village,13.5361,144.8886,26.62,80,75,5.66,GU,1714503944
383,kidal,18.4411,1.4078,34.91,14,90,7.6,ML,1714503944
384,williams lake,52.1415,-122.1445,6.76,42,75,2.57,CA,1714503944
385,yankton,42.8711,-97.3973,16.73,88,100,5.66,US,1714503944
386,santana,-0.0583,-51.1817,30.1,70,20,2.57,BR,1714503945
387,bintulu,3.1667,113.0333,27.23,94,20,2.24,MY,1714503945
388,cheremukhovo,60.3484,59.9851,-1.13,93,60,0.45,RU,1714503945
389,kailua-kona,19.6406,-155.9956,26.98,81,40,3.6,US,1714503945
390,ataq,14.5377,46.8319,24.12,72,26,8.4,YE,1714503945
391,bandjoun,5.3788,10.4182,17.73,92,100,0.68,CM,1714503945
392,franklin,39.9667,-83.0166,24.04,61,75,3.09,US,1714503945
393,mount isa,-20.7333,139.5,20.87,56,7,5.14,AU,1714503652
394,heroica caborca,30.7167,-112.15,32.3,11,0,5.6,MX,1714503946
395,pandan,14.0453,124.1694,25.44,87,100,2.03,PH,1714503946
396,port augusta,-32.5,137.7667,9.5,57,0,3.1,AU,1714503946
397,talnakh,69.4865,88.3972,-15.44,96,100,3.63,RU,1714503946
398,morehead city,34.7229,-76.726,27.23,73,0,7.72,US,1714503770
399,ende,-8.8432,121.6623,24.66,93,90,2.68,ID,1714503946
400,keflavik,64.0049,-22.5624,8.95,57,40,9.26,IS,1714503682
401,clarksdale,34.2001,-90.5709,28.28,100,0,0.0,US,1714503947
402,galle,6.0367,80.217,27.93,82,100,2.31,LK,1714503947
403,alesund,62.4723,6.1549,16.51,75,0,2.06,NO,1714503947
404,guiuan,11.0333,125.7247,28.08,70,88,4.37,PH,1714503947
405,palmer,42.1584,-72.3287,22.01,50,75,4.12,US,1714503947
406,bodaybo,57.8506,114.1933,2.25,99,100,2.39,RU,1714503947
407,dryden,49.7833,-92.7503,4.16,81,100,1.54,CA,1714503948
408,angamacutiro de la union,20.1667,-101.6833,33.6,10,99,2.11,MX,1714503948
409,comodoro rivadavia,-45.8667,-67.5,9.92,66,40,9.26,AR,1714503948
410,kasongo-lunda,-6.4667,16.8167,24.71,70,24,1.06,CD,1714503948
411,palikir - national government center,6.9248,158.1611,27.85,80,100,9.56,FM,1714503948
412,bei'an,24.5399,109.533,18.22,82,100,7.12,CN,1714503949
413,kant,27.8,79.8,28.06,11,0,3.47,IN,1714503949
414,tual,-5.6667,132.75,28.73,76,100,5.81,ID,1714503949
415,walvis bay,-22.9575,14.5053,23.53,53,0,2.57,NA,1714503950
416,beberibe,-4.1797,-38.1306,25.99,91,100,2.54,BR,1714503950
417,happy valley-goose bay,53.3168,-60.3315,1.17,93,100,6.17,CA,1714503951
418,saudarkrokur,65.7461,-19.6394,3.51,80,40,3.74,IS,1714503951
419,dukku,10.8231,10.7717,32.7,22,100,1.68,NG,1714503951
420,loukhi,66.0764,33.0381,0.08,90,100,1.43,RU,1714503951
421,tshabong,-26.05,22.45,24.14,27,0,4.57,BW,1714503951
422,farafangana,-22.8167,47.8333,23.65,88,82,3.7,MG,1714503952
423,le port,-20.9373,55.2919,24.98,80,100,3.58,RE,1714503952
424,alice springs,-23.7,133.8833,9.75,66,100,0.0,AU,1714503952
425,lisala,2.15,21.5167,22.84,93,76,0.37,CD,1714503952
426,silsbee,30.3491,-94.178,29.45,67,0,0.45,US,1714503953
427,thinadhoo,0.5333,72.9333,28.07,75,100,4.78,MV,1714503953
428,semnan,35.5729,53.3971,20.85,18,100,0.19,IR,1714503953
429,vila franca do campo,37.7167,-25.4333,18.27,99,100,1.97,PT,1714503953
430,broome,42.2506,-75.833,26.21,66,75,4.63,US,1714503953
431,carauari,-4.8828,-66.8958,30.07,67,99,1.13,BR,1714503954
432,waingapu,-9.6567,120.2641,25.32,87,68,4.56,ID,1714503954
433,cannonvale,-20.2833,148.7,23.66,85,97,5.88,AU,1714503954
434,martuk,50.7475,56.5056,8.67,57,0,3.05,KZ,1714503954
435,el nido,11.1858,119.3956,28.38,80,100,3.17,PH,1714503954
436,catriel,-37.8791,-67.7956,18.05,25,72,14.97,AR,1714503954
437,djenne,13.9061,-4.5533,36.99,15,0,5.26,ML,1714503955
438,emerald,-23.5333,148.1667,20.01,73,80,2.54,AU,1714503955
439,san diego de la union,21.4667,-100.8667,28.28,15,59,3.07,MX,1714503955
440,safotu,-13.4513,-172.4018,28.28,89,100,10.21,WS,1714503955
441,purcell,35.0137,-97.3611,29.98,58,0,8.99,US,1714503955
442,plastun,44.7561,136.2939,1.47,83,0,3.26,RU,1714503955
443,fuding,27.3273,120.214,17.3,98,100,1.42,CN,1714503956
444,namibe,-15.1961,12.1522,24.7,74,7,2.33,AO,1714503956
445,nchelenge,-9.3451,28.734,20.74,74,1,2.73,ZM,1714503956
446,santa cruz,-17.8,-63.1667,33.03,58,40,10.8,BO,1714503833
447,okhotsk,59.3833,143.3,-2.39,93,100,2.91,RU,1714503956
448,utrik,11.2278,169.8474,27.26,81,100,9.12,MH,1714503957
449,arno,60.1167,18.6333,5.44,74,4,3.28,SE,1714503957
450,wladyslawowo,54.7909,18.4009,18.75,85,95,3.56,PL,1714503957
451,yerofey pavlovich,53.9667,121.9667,3.77,74,100,1.03,RU,1714503957
452,pangobilian,8.8011,117.8594,27.34,87,100,2.19,PH,1714503957
453,isfana,39.8386,69.5306,8.31,61,100,3.2,KG,1714503957
454,usinsk,65.9939,57.5281,-5.52,96,90,3.58,RU,1714503958
455,balabac,7.9868,117.0645,28.08,78,100,4.58,PH,1714503958
456,kikwit,-5.041,18.8162,26.58,60,100,1.33,CD,1714503958
457,north platte,41.1239,-100.7654,21.73,25,40,14.31,US,1714503958
458,nova sintra,14.8667,-24.7167,23.84,80,31,10.87,CV,1714503958
459,tindouf,27.6711,-8.1474,28.25,14,0,1.03,DZ,1714503958
460,mil'kovo,55.6078,37.7956,18.22,65,100,5.61,RU,1714503959
461,san rafael,-34.6177,-68.3301,17.24,35,0,4.19,AR,1714503959
462,west plains,36.7281,-91.8524,27.17,44,0,4.12,US,1714503959
463,vodnyy,63.5046,53.4095,-0.33,94,100,2.23,RU,1714503959
464,ottawa,45.4112,-75.6981,9.31,91,100,5.66,CA,1714503790
465,la sarre,48.8002,-79.1996,4.4,89,100,5.32,CA,1714503959
466,sovetskaya,44.7769,41.1722,12.64,86,100,8.06,RU,1714503959
467,wurtulla,-26.7568,153.1256,17.95,100,15,1.34,AU,1714503960
468,osakarovka,50.565,72.5692,5.83,93,100,5.53,KZ,1714503960
469,hadibu,12.65,54.0333,28.68,78,100,4.7,YE,1714503960
470,zalingei,12.9096,23.4741,29.77,10,80,3.86,SD,1714503960
471,paradip garh,20.3167,86.6167,29.26,73,5,7.91,IN,1714503960
472,juneau,58.3019,-134.4197,11.0,82,20,3.6,US,1714503780
473,flin flon,54.7682,-101.865,12.91,28,40,5.14,CA,1714503960
474,yangambi,0.8102,24.4336,25.2,79,40,0.57,CD,1714503961
475,sorong,-0.8833,131.25,26.01,86,100,1.47,ID,1714503961
476,nuku'alofa,-21.1333,-175.2,25.19,94,20,1.54,TO,1714503961
477,esperanza,19.5847,-70.9849,31.28,63,52,4.02,DO,1714503961
478,resita,45.3008,21.8892,16.72,61,17,6.89,RO,1714503961
479,nizhnevartovsk,60.9344,76.5531,-2.99,68,0,5.81,RU,1714503961
480,mccomb,31.2438,-90.4531,27.23,50,75,2.06,US,1714503962
481,mbekenyera,-10.0,38.9833,21.57,88,0,1.93,TZ,1714503962
482,erbil,36.1926,44.0106,16.9,100,75,3.6,IQ,1714503962
483,burgos,42.3394,-3.7079,10.23,93,100,4.12,ES,1714503962
484,dunedin,-45.8742,170.5036,9.33,99,100,3.34,NZ,1714503962
485,lobujya,27.95,86.8167,-12.96,62,0,1.32,NP,1714503962
486,krasnogorskoye,52.2953,86.1979,6.72,90,100,1.04,RU,1714503963
487,udachny,66.4167,112.4,-5.86,94,100,5.78,RU,1714503963
488,bandarbeyla,9.4942,50.8122,29.11,78,100,5.94,SO,1714503963
489,san alberto,7.7611,-73.3922,32.23,64,20,2.32,CO,1714503963
490,kaoma,-14.7833,24.8,16.42,46,5,1.96,ZM,1714503963
491,ivdel',60.6911,60.4206,-0.45,91,8,0.89,RU,1714503963
492,jaru,-10.4389,-62.4664,31.24,68,11,1.28,BR,1714503964
493,zheleznogorsk,52.331,35.3711,12.21,62,65,2.28,RU,1714503964
494,yeppoon,-23.1333,150.7333,18.88,76,96,6.4,AU,1714503964
495,gupitan,7.7758,125.6406,23.25,97,81,0.74,PH,1714503964
496,tartu,58.3806,26.7251,14.06,51,20,1.54,EE,1714503964
497,belomorsk,64.5232,34.7668,-2.6,95,38,2.0,RU,1714503964
498,viedma,-40.8135,-62.9967,16.87,25,4,10.5,AR,1714503965
499,sur,22.5667,59.5289,29.61,51,17,4.05,OM,1714503965
500,miandoab,36.9694,46.1027,19.21,60,100,1.65,IR,1714503965
501,xiaoweizhai,26.1903,107.5125,13.22,90,99,2.58,CN,1714503965
502,paulo afonso,-9.4061,-38.2147,32.16,51,40,4.12,BR,1714503965
503,chissamba,-12.1667,17.3333,16.73,59,92,1.68,AO,1714503965
504,minab,27.1467,57.0801,30.23,43,4,0.34,IR,1714503966
505,deqen,29.9618,90.7188,4.69,19,38,2.58,CN,1714503966
506,wenzhou,27.9994,120.6668,17.39,91,100,0.47,CN,1714503670
507,constitucion,-35.3333,-72.4167,14.2,69,100,3.09,CL,1714503966
508,misantla,19.9333,-96.8333,35.86,37,41,3.62,MX,1714503943
509,mulayjah,27.271,48.4242,26.4,52,100,1.22,SA,1714503966
510,martaban,16.5314,97.6111,29.11,76,100,5.25,MM,1714503966
511,trincomalee,8.5711,81.2335,28.24,83,88,4.1,LK,1714503967
512,taghazout,30.5426,-9.7112,21.43,40,0,7.05,MA,1714503967
513,kotabumi,-4.8333,104.9,24.79,96,100,1.79,ID,1714503967
514,valday,57.9747,33.2525,9.46,73,100,2.24,RU,1714503967
515,khovd,48.0056,91.6419,9.66,35,100,4.85,MN,1714503967
516,carbondale,37.7273,-89.2168,26.0,64,75,2.57,US,1714503967
517,mabai,23.0128,104.4508,15.89,70,6,2.29,CN,1714503968
518,naze,28.3667,129.4833,23.51,84,100,8.6,JP,1714503968
519,prado,-17.3411,-39.2208,27.23,70,0,3.46,BR,1714503968
520,qamdo,31.1667,97.2333,3.19,60,34,0.87,CN,1714503968
521,betio village,1.358,172.9211,29.02,79,92,7.89,KI,1714503968
522,malpica,43.3228,-8.8105,12.41,68,36,6.19,ES,1714503969
523,roosevelt,33.9668,-103.4505,29.12,11,0,6.54,US,1714503969
524,saint-laurent-du-maroni,5.5039,-54.0289,31.11,61,72,3.03,GF,1714503969
525,yuci,37.6803,112.7319,8.86,37,0,3.0,CN,1714503969
526,changyon,38.2508,125.0961,10.26,46,36,1.52,KP,1714503969
527,porto novo,6.4965,2.6036,30.9,84,99,2.32,BJ,1714503969
528,kapsan-up,41.0903,128.2933,-0.34,64,0,0.2,KP,1714503970
529,rabo de peixe,37.8,-25.5833,17.77,99,20,5.66,PT,1714503970
530,kankauli,16.2667,73.7,26.02,81,23,1.09,IN,1714503970
531,playa del ingles,27.7567,-15.5787,20.86,62,17,0.89,ES,1714503970
532,san jeronimito,17.55,-101.3333,30.91,62,0,2.57,MX,1714503970
533,sars,56.5502,57.1366,6.8,94,100,2.37,RU,1714503970
534,pilona,43.35,-5.3667,10.62,97,100,0.2,ES,1714503971
535,cortez,37.3489,-108.5859,20.02,17,0,4.63,US,1714503794
536,medicine hat,50.0501,-110.6683,8.18,72,100,5.14,CA,1714503971
537,la'ie,21.6477,-157.9253,26.98,79,100,4.47,US,1714503971
538,tambura,5.6,27.4667,26.39,56,69,2.25,SS,1714503971
539,doctor arroyo,23.6667,-100.1833,29.42,21,0,4.02,MX,1714503971
540,yumaguzino,52.9041,56.3933,7.28,74,16,1.18,RU,1714503971
541,mau,25.95,83.55,30.47,10,0,3.98,IN,1714503972
542,patur,20.45,76.9333,34.11,17,0,3.42,IN,1714503972
543,sao jose da coroa grande,-8.8978,-35.1478,28.3,70,64,3.19,BR,1714503972
544,brookings,44.3114,-96.7984,17.32,80,40,7.72,US,1714503972
545,tete,-16.1564,33.5867,26.05,47,20,2.06,MZ,1714503972
546,hasaki,35.7333,140.8333,19.22,93,100,1.07,JP,1714503972
547,kondagaon,19.6,81.6667,29.75,36,0,2.28,IN,1714503973
548,caconda,-13.7333,15.0667,15.61,46,96,1.61,AO,1714503973
549,kristiansund,63.1115,7.732,16.36,31,0,2.57,NO,1714503973
550,gorontalo,0.5412,123.0595,22.65,94,100,1.41,ID,1714503973
551,vilyuysk,63.7553,121.6247,-3.33,85,100,5.36,RU,1714503973
552,soio,-6.1349,12.3689,26.95,90,100,3.18,AO,1714503973
553,hobyo,5.3505,48.5268,29.57,74,100,3.16,SO,1714503974
554,rawson,-43.3002,-65.1023,13.95,28,10,14.47,AR,1714503974
555,sarmiento,-45.5882,-69.07,3.09,95,100,13.39,AR,1714503974
556,porto barra do ivinheima,-22.9667,-53.6667,35.63,31,0,4.05,BR,1714503974
557,torghay,49.6339,63.4981,6.08,75,100,9.59,KZ,1714503974
558,chibougamau,49.9168,-74.3659,8.79,37,75,5.66,CA,1714503974
559,soure,-0.7167,-48.5233,28.51,75,92,4.07,BR,1714503974
560,tsarevo,42.1667,27.85,12.76,97,100,6.35,BG,1714503975
561,tofol,5.3248,163.0078,28.46,79,100,9.61,FM,1714503975
562,muang khong,14.1167,105.85,30.07,55,27,2.42,LA,1714503975
563,nova olimpia,-14.7972,-57.2881,33.69,50,67,2.45,BR,1714503975
564,ulimang,7.6242,134.6421,26.23,76,100,4.74,PW,1714503975
565,harper,4.375,-7.7169,27.6,85,89,4.22,LR,1714503975
566,papao,-17.75,-149.55,27.82,74,18,8.8,PF,1714503976
567,castillos,-34.1667,-53.8333,22.8,85,99,2.33,UY,1714503976
568,bayanhongor,46.7167,100.1167,0.25,42,67,2.0,MN,1714503976
569,escanaba,45.7453,-87.0646,13.98,58,100,3.09,US,1714503976
570,mugia,43.1041,-9.2179,11.62,75,94,8.14,ES,1714503976
571,cuencame de ceniceros,24.8711,-103.6964,31.03,5,100,3.17,MX,1714503976
572,mount pearl,47.5166,-52.7813,6.29,98,100,8.23,CA,1714503977
573,pospelikha,51.95,81.7667,4.05,89,100,4.23,RU,1714503977
574,santa rita,-7.1139,-34.9781,29.37,74,20,5.14,BR,1714503977
575,madingou,-4.1536,13.55,25.48,88,100,0.68,CG,1714503977
576,al kharijah,25.4514,30.5464,26.73,19,0,3.86,EG,1714503977
577,villamontes,-21.25,-63.5,33.69,52,0,2.06,BO,1714503978
578,talakan,50.3167,130.3667,6.77,57,97,1.76,RU,1714503978
579,bereznik,62.8551,42.7072,1.76,98,100,3.47,RU,1714503978
580,dellys,36.9172,3.9131,14.44,74,100,7.78,DZ,1714503978
581,puerto baquerizo moreno,-0.9,-89.6,29.55,54,20,6.17,EC,1714503978
582,belvedere marittimo,39.6179,15.8617,16.18,67,100,2.1,IT,1714503978
